latitude,longitude,altitude(feet),ascent(feet),speed(mph),distance(feet),time(millisecond),datetime(utc),satellites,voltage(v),max_altitude(feet),max_ascent(feet),max_speed(mph),max_distance(feet),compass_heading(degrees),isPhoto,isVideo,rc_elevator,rc_aileron,rc_throttle,rc_rudder,gimbal_heading(degrees),gimbal_pitch(degrees),battery_percent,voltageCell1,voltageCell2,voltageCell3,voltageCell4,voltageCell5,voltageCell6,flycStateRaw,flycState,message
-34.0125586890231,19.2024364077423,1051.9261333992,0,0,0,0,2017-05-22 12:58:57,18,0,1051.9261333992,0,0,0,268.9,1,0,1024,1024,1024,1024,269.2,-4.5,64,3.90867,3.90867,3.90867,0,0,0,41,Motors_Started,
-34.0125586870457,19.2024363701454,1051.9261333992,0,0,0.0113932746428,200,2017-05-22 12:58:57,18,0,1051.9261333992,0,0,0.0113932746428,268.9,0,0,1024,1024,1024,1024,269.2,-4.5,64,3.90867,3.90867,3.90867,0,0,0,41,Motors_Started,
-34.0125586844903,19.2024363593838,1051.9261333992,0,0,0.0147182419408,300,2017-05-22 12:58:58,18,0,1051.9261333992,0,0,0.0147182419408,270.6,0,0,1024,1024,1024,1024,269.2,-4.6,64,3.90867,3.90867,3.90867,0,0,0,41,Motors_Started,
-34.0125587011265,19.2024363446975,1051.9261333992,0,0.223694,0.0195712932772,400,2017-05-22 12:58:58,18,0,1051.9261333992,0,0.223694,0.0195712932772,271.7,0,0,1024,1024,1024,1024,269.2,-4.6,64,3.90867,3.90867,3.90867,0,0,0,41,Motors_Started,
-34.0125586939638,19.2024363815261,1051.9261333992,0,0,0.0081308729636,500,2017-05-22 12:58:58,18,0,1051.9261333992,0,0.223694,0.0195712932772,270,0,0,1024,1024,1024,1024,269.2,-4.5,64,3.90867,3.90867,3.90867,0,0,0,41,Motors_Started,
-34.0125587077746,19.2024363669349,1051.9261333992,0,0,0.0141108272232,600,2017-05-22 12:58:58,18,0,1051.9261333992,0,0.223694,0.0195712932772,270,0,0,1024,1024,1024,1024,269.3,-4.5,64,3.90867,3.90867,3.90867,0,0,0,41,Motors_Started,
-34.0125587141532,19.2024363610438,1051.9261333992,0,0,0.0168381895152,700,2017-05-22 12:58:58,18,0,1051.9261333992,0,0.223694,0.0195712932772,270,0,0,1024,1024,1024,1024,269.3,-4.5,64,3.90867,3.90867,3.90867,0,0,0,41,Motors_Started,
-34.0125587125227,19.2024363489916,1051.9261333992,0,0.223694,0.0197284127048,800,2017-05-22 12:58:58,18,0,1051.9261333992,0,0.223694,0.0197284127048,270,0,0,1024,1024,1024,1024,269.3,-4.5,64,3.90867,3.90867,3.90867,0,0,0,41,Motors_Started,
-34.0125587120782,19.2024363412461,1051.9261333992,0,0,0.02179872117,900,2017-05-22 12:58:58,18,0,1051.9261333992,0,0.223694,0.02179872117,270,0,0,1024,1024,1024,1024,269.3,-4.5,64,3.90867,3.90867,3.90867,0,0,0,41,Motors_Started,
-34.0125587069498,19.2024362954356,1051.9261333992,0,0,0.034588911868,1000,2017-05-22 12:58:58,18,11.726,1051.9261333992,0,0.223694,0.034588911868,270,0,0,1024,1024,1024,1024,269.3,-4.5,64,3.90867,3.90867,3.90867,0,0,0,41,Motors_Started,
-34.0125587032052,19.2024362588928,1051.9261333992,0,0,0.045312665492,1100,2017-05-22 12:58:58,18,11.726,1051.9261333992,0,0.223694,0.045312665492,270,0,0,1024,1024,1024,1024,0,0,64,3.90867,3.90867,3.90867,0,0,0,41,Motors_Started,
-34.0125586601601,19.2024362255854,1051.9261333992,0,0,0.056086944052,1200,2017-05-22 12:58:58,18,11.726,1051.9261333992,0,0.223694,0.056086944052,270,0,0,1024,1024,1024,1024,269.3,-4.5,64,3.90867,3.90867,3.90867,0,0,0,41,Motors_Started,Taking off
-34.0125586229485,19.2024362017944,1051.9261333992,0,0,0.066787403712,1300,2017-05-22 12:58:59,18,11.726,1051.9261333992,0,0.223694,0.066787403712,270,0,0,1024,1024,1024,1024,269.3,-4.5,64,3.90867,3.90867,3.90867,0,0,0,11,AutoTakeoff,
-34.0125585876133,19.2024361839173,1051.9261333992,0,0,0.077143047088,1400,2017-05-22 12:58:59,18,11.726,1051.9261333992,0,0.223694,0.077143047088,270,0,0,1024,1024,1024,1024,269.4,-4.5,64,3.90867,3.90867,3.90867,0,0,0,11,AutoTakeoff,
-34.0125585577644,19.2024361680942,1051.9261333992,0,0,0.086869425352,1500,2017-05-22 12:58:59,18,11.726,1051.9261333992,0,0.223694,0.086869425352,270,0,0,1024,1024,1024,1024,0,0,64,3.90867,3.90867,3.90867,0,0,0,11,AutoTakeoff,
-34.0125585341666,19.2024361591376,1051.9261333992,0,0,0.094047903272,1600,2017-05-22 12:58:59,18,11.726,1051.9261333992,0,0.223694,0.094047903272,270,0,0,1024,1024,1024,1024,269.4,-4.5,64,3.90867,3.90867,3.90867,0,0,0,11,AutoTakeoff,
-34.0125585091696,19.2024361480207,1051.9261333992,0,0,0.102350396976,1700,2017-05-22 12:58:59,18,11.726,1051.9261333992,0,0.223694,0.102350396976,270,0,0,1024,1024,1024,1024,0,0,64,3.90867,3.90867,3.90867,0,0,0,11,AutoTakeoff,
-34.0125584939277,19.20243610718,1051.9261333992,0,0,0.115452431516,1800,2017-05-22 12:58:59,18,11.726,1051.9261333992,0,0.223694,0.115452431516,270.1,0,0,1024,1024,1024,1024,269.4,-4.5,64,3.90867,3.90867,3.90867,0,0,0,11,AutoTakeoff,
-34.0125584778432,19.2024360570519,1051.9261333992,0,0,0.131091867712,1900,2017-05-22 12:58:59,18,11.726,1051.9261333992,0,0.223694,0.131091867712,270.1,0,0,1024,1024,1024,1024,269.4,-4.5,64,3.90867,3.90867,3.90867,0,0,0,11,AutoTakeoff,
-34.0125584916239,19.2024360055875,1051.9261333992,0,0,0.141348101636,2000,2017-05-22 12:58:59,18,11.765,1051.9261333992,0,0.223694,0.141348101636,270.1,0,0,1024,1024,1024,1024,269.4,-4.5,64,3.92167,3.92167,3.92167,0,0,0,11,AutoTakeoff,
-34.0125585242518,19.2024359372878,1051.9261333992,0,0,0.154458338276,2100,2017-05-22 12:58:59,18,11.765,1051.9261333992,0,0.223694,0.154458338276,270,0,0,1024,1024,1024,1024,269.4,-4.5,64,3.92167,3.92167,3.92167,0,0,0,11,AutoTakeoff,
-34.012558673938,19.2024358499378,1051.9261333992,0,0,0.16878609464,2300,2017-05-22 12:58:59,18,11.765,1051.9261333992,0,0.223694,0.16878609464,269.9,0,0,1024,1024,1024,1024,269.4,-4.5,64,3.92167,3.92167,3.92167,0,0,0,11,AutoTakeoff,
-34.0125588484547,19.2024358188937,1052.2542173992,0.328084,0,0.1873441661,2500,2017-05-22 12:59:00,18,11.765,1052.2542173992,0.328084,0.223694,0.1873441661,270.1,0,0,1024,1024,1024,1024,269.5,-4.5,64,3.92167,3.92167,3.92167,0,0,0,11,AutoTakeoff,
-34.0125589458987,19.2024359091507,1052.2542173992,0.328084,0,0.17754101618,2600,2017-05-22 12:59:00,18,11.765,1052.2542173992,0.328084,0.223694,0.1873441661,270,0,0,1024,1024,1024,1024,269.5,-4.5,64,3.92167,3.92167,3.92167,0,0,0,11,AutoTakeoff,
-34.0125590191852,19.202436004814,1052.2542173992,0.328084,0,0.17134679026,2700,2017-05-22 12:59:00,18,11.765,1052.2542173992,0.328084,0.223694,0.1873441661,270,0,0,1024,1024,1024,1024,269.5,-4.5,64,3.92167,3.92167,3.92167,0,0,0,11,AutoTakeoff,
-34.0125590679498,19.202436129917,1052.5823013992,0.656168,0,0.161781173156,2800,2017-05-22 12:59:00,18,11.765,1052.5823013992,0.656168,0.223694,0.1873441661,270,0,0,1024,1024,1024,1024,269.5,-4.5,64,3.92167,3.92167,3.92167,0,0,0,11,AutoTakeoff,
-34.0125590944376,19.2024362510743,1052.5823013992,0.656168,0,0.155318574524,2900,2017-05-22 12:59:00,18,11.765,1052.5823013992,0.656168,0.223694,0.1873441661,269.9,0,0,1024,1024,1024,1024,269.5,-4.5,64,3.92167,3.92167,3.92167,0,0,0,11,AutoTakeoff,
-34.0125591254843,19.2024365950937,1052.9103853992,0.984252,0.223694,0.169022643204,3100,2017-05-22 12:59:00,18,11.765,1052.9103853992,0.984252,0.223694,0.1873441661,269.9,0,0,1024,1024,1024,1024,269.5,-4.5,64,3.92167,3.92167,3.92167,0,0,0,11,AutoTakeoff,
-34.0125591254843,19.2024365950937,1052.9103853992,0.984252,0.223694,0.169022643204,3100,2017-05-22 12:59:00,18,11.765,1052.9103853992,0.984252,0.223694,0.1873441661,269.9,0,0,1024,1024,1024,1024,269.5,-4.5,64,3.92167,3.92167,3.92167,0,0,0,11,AutoTakeoff,
-34.0125591692785,19.20243702938,1053.2384693992,1.312336,0.223694,0.256995743132,3300,2017-05-22 12:59:00,18,11.635,1053.2384693992,1.312336,0.223694,0.256995743132,270,0,0,1024,1024,1024,1024,269.5,-4.5,64,3.87833,3.87833,3.87833,0,0,0,11,AutoTakeoff,
-34.0125591744854,19.202437253685,1053.2384693992,1.312336,0.223694,0.311166676624,3400,2017-05-22 12:59:01,18,11.635,1053.2384693992,1.312336,0.223694,0.311166676624,270.1,0,0,1024,1024,1024,1024,269.5,-4.5,64,3.87833,3.87833,3.87833,0,0,0,11,AutoTakeoff,
-34.0125591607357,19.2024374630373,1053.5665533992,1.64042,0.223694,0.3625984368,3500,2017-05-22 12:59:01,18,11.635,1053.5665533992,1.64042,0.223694,0.3625984368,270,0,0,1024,1024,1024,1024,269.5,-4.5,64,3.87833,3.87833,3.87833,0,0,0,11,AutoTakeoff,
-34.0125591341704,19.2024376172611,1053.5665533992,1.64042,0.223694,0.4002296716,3600,2017-05-22 12:59:01,18,11.635,1053.5665533992,1.64042,0.223694,0.4002296716,270.1,0,0,1024,1024,1024,1024,269.5,-4.5,64,3.87833,3.87833,3.87833,0,0,0,11,AutoTakeoff,
-34.0125591059112,19.2024377604636,1053.8946373992,1.968504,0.223694,0.43646326856,3700,2017-05-22 12:59:01,18,11.635,1053.8946373992,1.968504,0.223694,0.43646326856,270.1,0,0,1024,1024,1024,1024,269.5,-4.5,64,3.87833,3.87833,3.87833,0,0,0,11,AutoTakeoff,
-34.0125590526192,19.2024379061459,1053.8946373992,1.968504,0.223694,0.4721784928,3800,2017-05-22 12:59:01,18,11.635,1053.8946373992,1.968504,0.223694,0.4721784928,270,0,0,1024,1024,1024,1024,269.5,-4.5,64,3.87833,3.87833,3.87833,0,0,0,11,AutoTakeoff,
-34.0125590037329,19.2024380347416,1054.2227213992,2.296588,0,0.50527232588,3900,2017-05-22 12:59:01,18,11.635,1054.2227213992,2.296588,0.223694,0.50527232588,270,0,0,1024,1024,1024,1024,269.5,-4.5,64,3.87833,3.87833,3.87833,0,0,0,11,AutoTakeoff,
-34.0125590121312,19.2024381351851,1054.2227213992,2.296588,0,0.5355643216,4000,2017-05-22 12:59:01,18,11.635,1054.2227213992,2.296588,0.223694,0.5355643216,270,0,0,1024,1024,1024,1024,269.6,-4.5,64,3.87833,3.87833,3.87833,0,0,0,11,AutoTakeoff,
-34.0125590111684,19.2024382145522,1054.5508053992,2.624672,0,0.55893046408,4100,2017-05-22 12:59:01,18,11.635,1054.5508053992,2.624672,0.223694,0.55893046408,269.9,0,0,1024,1024,1024,1024,269.6,-4.5,64,3.87833,3.87833,3.87833,0,0,0,11,AutoTakeoff,
-34.0125589882798,19.2024382586535,1054.5508053992,2.624672,0,0.57031825972,4200,2017-05-22 12:59:01,18,11.635,1054.5508053992,2.624672,0.223694,0.57031825972,269.9,0,0,1024,1024,1024,1024,269.6,-4.5,64,3.87833,3.87833,3.87833,0,0,0,11,AutoTakeoff,
-34.0125589546259,19.2024382938735,1054.8788893992,2.952756,0,0.5785925382,4300,2017-05-22 12:59:01,18,11.647,1054.8788893992,2.952756,0.223694,0.5785925382,270,0,0,1024,1024,1024,1024,269.6,-4.5,64,3.88233,3.88233,3.88233,0,0,0,11,AutoTakeoff,
-34.0125589763873,19.2024382970443,1054.8788893992,2.952756,0,0.58091865376,4400,2017-05-22 12:59:02,18,11.647,1054.8788893992,2.952756,0.223694,0.58091865376,270,0,0,1024,1024,1024,1024,269.6,-4.5,64,3.88233,3.88233,3.88233,0,0,0,11,AutoTakeoff,
-34.0125589880852,19.2024382976353,1055.2069733992,3.28084,0,0.58187993988,4500,2017-05-22 12:59:02,18,11.647,1055.2069733992,3.28084,0.223694,0.58187993988,270.1,0,0,1024,1024,1024,1024,269.6,-4.5,64,3.88233,3.88233,3.88233,0,0,0,11,AutoTakeoff,
-34.0125589844102,19.2024382937676,1055.2069733992,3.28084,0,0.58048230204,4600,2017-05-22 12:59:02,18,11.647,1055.2069733992,3.28084,0.223694,0.58187993988,269.9,0,0,1024,1024,1024,1024,269.6,-4.5,64,3.88233,3.88233,3.88233,0,0,0,6,GPS_Atti,
-34.0125589686867,19.2024382933393,1055.5350573992,3.608924,0,0.57931760384,4700,2017-05-22 12:59:02,18,11.647,1055.5350573992,3.608924,0.223694,0.58187993988,269.7,0,0,1024,1024,1024,1024,269.6,-4.5,64,3.88233,3.88233,3.88233,0,0,0,6,GPS_Atti,
-34.0125590044042,19.2024383193646,1055.5350573992,3.608924,0,0.5894685228,4800,2017-05-22 12:59:02,18,11.647,1055.5350573992,3.608924,0.223694,0.5894685228,269.7,0,0,1024,1024,1024,1024,269.6,-4.5,64,3.88233,3.88233,3.88233,0,0,0,6,GPS_Atti,
-34.012559025828,19.2024383431596,1055.5350573992,3.608924,0,0.59808728948,4900,2017-05-22 12:59:02,18,11.647,1055.5350573992,3.608924,0.223694,0.59808728948,269.6,0,0,1024,1024,1024,1024,269.6,-4.5,64,3.88233,3.88233,3.88233,0,0,0,6,GPS_Atti,
-34.0125590576609,19.2024383487022,1055.5350573992,3.608924,0,0.6022145862,5000,2017-05-22 12:59:02,18,11.647,1055.5350573992,3.608924,0.223694,0.6022145862,269.7,0,0,1024,1024,1024,1024,269.6,-4.5,64,3.88233,3.88233,3.88233,0,0,0,6,GPS_Atti,
-34.012559072603,19.202438341736,1055.5350573992,3.608924,0,0.60140749956,5100,2017-05-22 12:59:02,18,11.647,1055.5350573992,3.608924,0.223694,0.6022145862,269.7,0,0,1024,1024,1024,1024,269.6,-4.5,64,3.88233,3.88233,3.88233,0,0,0,6,GPS_Atti,
-34.0125590937671,19.2024383533955,1055.5350573992,3.608924,0,0.60666996692,5200,2017-05-22 12:59:02,18,11.647,1055.5350573992,3.608924,0.223694,0.60666996692,269.7,0,0,1024,1024,1024,1024,269.6,-4.5,64,3.88233,3.88233,3.88233,0,0,0,6,GPS_Atti,
-34.0125590998111,19.2024383511548,1055.5350573992,3.608924,0,0.60655185668,5300,2017-05-22 12:59:02,18,11.728,1055.5350573992,3.608924,0.223694,0.60666996692,269.8,0,0,1024,1024,1024,1024,269.6,-4.5,64,3.90933,3.90933,3.90933,0,0,0,6,GPS_Atti,
-34.0125591058119,19.2024383449385,1055.5350573992,3.608924,0,0.60527889076,5400,2017-05-22 12:59:03,18,11.728,1055.5350573992,3.608924,0.223694,0.60666996692,269.8,0,0,1024,1024,1024,1024,269.6,-4.5,64,3.90933,3.90933,3.90933,0,0,0,6,GPS_Atti,
-34.0125591017217,19.2024383297484,1055.5350573992,3.608924,0,0.60045605596,5500,2017-05-22 12:59:03,18,11.728,1055.5350573992,3.608924,0.223694,0.60666996692,269.6,0,0,1024,1024,1024,1024,269.6,-4.5,64,3.90933,3.90933,3.90933,0,0,0,6,GPS_Atti,
-34.0125591004482,19.2024383233286,1055.5350573992,3.608924,0,0.59846130524,5600,2017-05-22 12:59:03,18,11.728,1055.5350573992,3.608924,0.223694,0.60666996692,269.6,0,0,1024,1024,1024,1024,269.6,-4.5,64,3.90933,3.90933,3.90933,0,0,0,6,GPS_Atti,
-34.012559085217,19.2024383063436,1055.5350573992,3.608924,0,0.592109599,5700,2017-05-22 12:59:03,18,11.728,1055.5350573992,3.608924,0.223694,0.60666996692,269.6,0,0,1024,1024,1024,1024,269.6,-4.5,64,3.90933,3.90933,3.90933,0,0,0,6,GPS_Atti,
-34.0125591082941,19.2024383001738,1055.5350573992,3.608924,0,0.59241799796,5800,2017-05-22 12:59:03,18,11.728,1055.5350573992,3.608924,0.223694,0.60666996692,269.6,0,0,1024,1024,1024,1024,269.6,-4.5,64,3.90933,3.90933,3.90933,0,0,0,6,GPS_Atti,
-34.0125591125533,19.2024382834587,1055.5350573992,3.608924,0,0.58793965136,5900,2017-05-22 12:59:03,18,11.728,1055.5350573992,3.608924,0.223694,0.60666996692,269.6,0,0,1024,1024,1024,1024,269.6,-4.5,64,3.90933,3.90933,3.90933,0,0,0,6,GPS_Atti,
-34.0125591247694,19.2024382446384,1055.5350573992,3.608924,0,0.57783138332,6000,2017-05-22 12:59:03,18,11.728,1055.5350573992,3.608924,0.223694,0.60666996692,269.6,0,0,1024,1024,1024,1024,269.6,-4.5,64,3.90933,3.90933,3.90933,0,0,0,6,GPS_Atti,
-34.0125591191651,19.202438199233,1055.5350573992,3.608924,0,0.56407154036,6100,2017-05-22 12:59:03,18,11.728,1055.5350573992,3.608924,0.223694,0.60666996692,269.5,0,0,1024,1024,1024,1024,269.6,-4.5,64,3.90933,3.90933,3.90933,0,0,0,6,GPS_Atti,
-34.012559129027,19.2024381406043,1055.5350573992,3.608924,0,0.54810369208,6200,2017-05-22 12:59:03,18,11.728,1055.5350573992,3.608924,0.223694,0.60666996692,269.5,0,0,1024,1024,1024,1024,269.6,-4.5,64,3.90933,3.90933,3.90933,0,0,0,6,GPS_Atti,
-34.0125591273684,19.2024380860572,1055.5350573992,3.608924,0,0.53217193304,6300,2017-05-22 12:59:03,18,11.64,1055.5350573992,3.608924,0.223694,0.60666996692,269.5,0,0,1024,1024,1024,1024,269.6,-4.5,64,3.88,3.88,3.88,0,0,0,6,GPS_Atti,
-34.0125591492091,19.2024380294309,1055.5350573992,3.608924,0,0.5183891242,6400,2017-05-22 12:59:04,18,11.64,1055.5350573992,3.608924,0.223694,0.60666996692,269.5,0,0,1024,1024,1024,1024,269.6,-4.5,64,3.88,3.88,3.88,0,0,0,6,GPS_Atti,
-34.012559161922,19.2024379776328,1055.5350573992,3.608924,0,0.50515749648,6500,2017-05-22 12:59:04,18,11.64,1055.5350573992,3.608924,0.223694,0.60666996692,269.5,0,0,1024,1024,1024,1024,269.6,-4.5,64,3.88,3.88,3.88,0,0,0,6,GPS_Atti,
-34.0125591910801,19.2024379231897,1055.5350573992,3.608924,0,0.49356628876,6600,2017-05-22 12:59:04,18,11.64,1055.5350573992,3.608924,0.223694,0.60666996692,269.5,0,0,1024,1024,1024,1024,269.6,-4.5,64,3.88,3.88,3.88,0,0,0,6,GPS_Atti,
-34.012559212247,19.2024378690218,1055.5350573992,3.608924,0,0.48140093404,6700,2017-05-22 12:59:04,18,11.64,1055.5350573992,3.608924,0.223694,0.60666996692,269.4,0,0,1024,1024,1024,1024,269.6,-4.5,64,3.88,3.88,3.88,0,0,0,6,GPS_Atti,
-34.0125592413225,19.2024377717446,1055.5350573992,3.608924,0,0.45910106456,6800,2017-05-22 12:59:04,18,11.64,1055.5350573992,3.608924,0.223694,0.60666996692,269.4,0,0,1024,1024,1024,1024,269.6,-4.5,64,3.88,3.88,3.88,0,0,0,6,GPS_Atti,
-34.0125592634762,19.2024376800391,1055.5350573992,3.608924,0,0.43815946284,6900,2017-05-22 12:59:04,18,11.64,1055.5350573992,3.608924,0.223694,0.60666996692,269.3,0,0,1024,1024,1024,1024,269.6,-4.5,64,3.88,3.88,3.88,0,0,0,6,GPS_Atti,
-34.0125592871497,19.2024375943084,1055.5350573992,3.608924,0,0.4199967326,7000,2017-05-22 12:59:04,18,11.64,1055.5350573992,3.608924,0.223694,0.60666996692,269.4,0,0,1024,1024,1024,1024,269.6,-4.5,64,3.88,3.88,3.88,0,0,0,6,GPS_Atti,
-34.0125593085784,19.2024375224262,1055.5350573992,3.608924,0,0.40588255892,7100,2017-05-22 12:59:04,18,11.64,1055.5350573992,3.608924,0.223694,0.60666996692,269.4,0,0,1024,1024,1024,1024,269.6,-4.5,64,3.88,3.88,3.88,0,0,0,6,GPS_Atti,
-34.0125593250111,19.2024374677479,1055.5350573992,3.608924,0,0.39574148248,7200,2017-05-22 12:59:04,18,11.64,1055.5350573992,3.608924,0.223694,0.60666996692,269.5,0,0,1024,1024,1024,1024,269.6,-4.5,64,3.88,3.88,3.88,0,0,0,6,GPS_Atti,
-34.0125593358427,19.2024374163154,1055.5350573992,3.608924,0,0.38565618032,7300,2017-05-22 12:59:05,18,11.576,1055.5350573992,3.608924,0.223694,0.60666996692,269.6,0,0,1024,1024,1024,1024,269.6,-4.5,64,3.85867,3.85867,3.85867,0,0,0,6,GPS_Atti,
-34.0125593663971,19.2024373369147,1055.5350573992,3.608924,0,0.37422573376,7400,2017-05-22 12:59:05,18,11.576,1055.5350573992,3.608924,0.223694,0.60666996692,269.6,0,0,1024,1024,1024,1024,269.6,-4.5,64,3.85867,3.85867,3.85867,0,0,0,6,GPS_Atti,
-34.0125593863692,19.2024372636173,1055.5350573992,3.608924,0,0.36294948668,7500,2017-05-22 12:59:05,18,11.576,1055.5350573992,3.608924,0.223694,0.60666996692,269.6,0,0,1024,1024,1024,1024,269.6,-4.5,64,3.85867,3.85867,3.85867,0,0,0,6,GPS_Atti,
-34.0125593863896,19.2024372356929,1055.5350573992,3.608924,0,0.35698163872,7600,2017-05-22 12:59:05,18,11.576,1055.5350573992,3.608924,0.223694,0.60666996692,269.6,0,0,1024,1024,1024,1024,269.6,-4.5,64,3.85867,3.85867,3.85867,0,0,0,6,GPS_Atti,
-34.0125593719933,19.202437210206,1055.5350573992,3.608924,0,0.3478346568,7700,2017-05-22 12:59:05,18,11.576,1055.5350573992,3.608924,0.223694,0.60666996692,269.6,0,0,1024,1024,1024,1024,269.6,-4.5,64,3.85867,3.85867,3.85867,0,0,0,6,GPS_Atti,
-34.0125593478712,19.2024371552901,1055.5350573992,3.608924,0,0.32999344888,7800,2017-05-22 12:59:05,18,11.576,1055.5350573992,3.608924,0.223694,0.60666996692,269.6,0,0,1024,1024,1024,1024,269.6,-4.5,64,3.85867,3.85867,3.85867,0,0,0,6,GPS_Atti,
-34.012559322697,19.2024371095688,1055.5350573992,3.608924,0,0.313851387996,7900,2017-05-22 12:59:05,18,11.576,1055.5350573992,3.608924,0.223694,0.60666996692,269.6,0,0,1024,1024,1024,1024,269.6,-4.5,64,3.85867,3.85867,3.85867,0,0,0,6,GPS_Atti,
-34.0125593092469,19.20243710592,1055.5350573992,3.608924,0,0.309500337988,8000,2017-05-22 12:59:05,18,11.576,1055.5350573992,3.608924,0.223694,0.60666996692,269.5,0,0,1024,1024,1024,1024,269.6,-4.5,64,3.85867,3.85867,3.85867,0,0,0,6,GPS_Atti,
-34.0125592945217,19.2024371089377,1055.5350573992,3.608924,0,0.3062254035,8100,2017-05-22 12:59:05,18,11.576,1055.5350573992,3.608924,0.223694,0.60666996692,269.6,0,0,1024,1024,1024,1024,269.6,-4.5,64,3.85867,3.85867,3.85867,0,0,0,6,GPS_Atti,
-34.0125592564503,19.2024371002156,1055.5350573992,3.608924,0,0.294479340132,8200,2017-05-22 12:59:05,18,11.576,1055.5350573992,3.608924,0.223694,0.60666996692,269.6,0,0,1024,1024,1024,1024,269.6,-4.5,64,3.85867,3.85867,3.85867,0,0,0,6,GPS_Atti,
-34.0125592185654,19.202437088529,1055.5350573992,3.608924,0,0.282343841056,8300,2017-05-22 12:59:06,18,11.636,1055.5350573992,3.608924,0.223694,0.60666996692,269.6,0,0,1024,1024,1024,1024,269.6,-4.5,64,3.87867,3.87867,3.87867,0,0,0,6,GPS_Atti,
-34.0125591662121,19.2024370840796,1055.5350573992,3.608924,0,0.26860729206,8400,2017-05-22 12:59:06,18,11.636,1055.5350573992,3.608924,0.223694,0.60666996692,269.5,0,0,1024,1024,1024,1024,269.6,-4.5,64,3.87867,3.87867,3.87867,0,0,0,6,GPS_Atti,
-34.0125591230266,19.2024370772332,1055.5350573992,3.608924,0,0.257038722136,8500,2017-05-22 12:59:06,18,11.636,1055.5350573992,3.608924,0.223694,0.60666996692,269.6,0,0,1024,1024,1024,1024,269.6,-4.5,64,3.87867,3.87867,3.87867,0,0,0,6,GPS_Atti,
-34.0125591054785,19.202437075058,1055.5350573992,3.608924,0,0.252619102572,8600,2017-05-22 12:59:06,18,11.636,1055.5350573992,3.608924,0.223694,0.60666996692,269.6,0,0,1024,1024,1024,1024,269.6,-4.5,64,3.87867,3.87867,3.87867,0,0,0,6,GPS_Atti,
-34.0125590937911,19.2024370692809,1055.5350573992,3.608924,0,0.24866962738,8700,2017-05-22 12:59:06,18,11.636,1055.5350573992,3.608924,0.223694,0.60666996692,269.6,0,0,1024,1024,1024,1024,269.6,-4.5,64,3.87867,3.87867,3.87867,0,0,0,6,GPS_Atti,
-34.0125590695176,19.2024370675709,1055.5350573992,3.608924,0,0.243089902792,8800,2017-05-22 12:59:06,18,11.636,1055.5350573992,3.608924,0.223694,0.60666996692,269.5,0,0,1024,1024,1024,1024,269.6,-4.5,64,3.87867,3.87867,3.87867,0,0,0,6,GPS_Atti,
-34.0125590476313,19.2024370587044,1055.5350573992,3.608924,0,0.236381897328,8900,2017-05-22 12:59:06,18,11.636,1055.5350573992,3.608924,0.223694,0.60666996692,269.6,0,0,1024,1024,1024,1024,269.6,-4.5,64,3.87867,3.87867,3.87867,0,0,0,6,GPS_Atti,
-34.0125590411301,19.2024370205632,1055.5350573992,3.608924,0,0.22550525656,9000,2017-05-22 12:59:06,18,11.636,1055.5350573992,3.608924,0.223694,0.60666996692,269.6,0,0,1024,1024,1024,1024,269.6,-4.5,64,3.87867,3.87867,3.87867,0,0,0,6,GPS_Atti,
-34.0125590385034,19.2024369832131,1055.5350573992,3.608924,0,0.215749350736,9100,2017-05-22 12:59:06,18,11.636,1055.5350573992,3.608924,0.223694,0.60666996692,269.5,0,0,1024,1024,1024,1024,269.6,-4.5,64,3.87867,3.87867,3.87867,0,0,0,6,GPS_Atti,
-34.0125590458058,19.2024369618716,1055.5350573992,3.608924,0,0.21220145036,9200,2017-05-22 12:59:06,18,11.636,1055.5350573992,3.608924,0.223694,0.60666996692,269.5,0,0,1024,1024,1024,1024,269.6,-4.5,64,3.87867,3.87867,3.87867,0,0,0,6,GPS_Atti,
-34.0125590515432,19.2024369481946,1055.5350573992,3.608924,0,0.210260505416,9300,2017-05-22 12:59:07,18,11.604,1055.5350573992,3.608924,0.223694,0.60666996692,269.5,0,0,1024,1024,1024,1024,269.6,-4.5,64,3.868,3.868,3.868,0,0,0,6,GPS_Atti,Tap the screen lightly to focus.
-34.0125590645581,19.2024369175223,1055.5350573992,3.608924,0,0.206256896364,9400,2017-05-22 12:59:07,18,11.604,1055.5350573992,3.608924,0.223694,0.60666996692,269.5,1,0,1024,1024,1024,1024,269.6,-4.5,64,3.868,3.868,3.868,0,0,0,6,GPS_Atti,
-34.0125590772164,19.2024368937166,1055.5350573992,3.608924,0,0.204109586584,9500,2017-05-22 12:59:07,18,11.604,1055.5350573992,3.608924,0.223694,0.60666996692,269.4,0,0,1024,1024,1024,1024,269.6,-4.5,64,3.868,3.868,3.868,0,0,0,6,GPS_Atti,
-34.012559091789,19.2024368865528,1055.5350573992,3.608924,0,0.206307749384,9600,2017-05-22 12:59:07,18,11.604,1055.5350573992,3.608924,0.223694,0.60666996692,269.4,0,0,1024,1024,1024,1024,0,0,64,3.868,3.868,3.868,0,0,0,6,GPS_Atti,
-34.0125591055868,19.2024368816648,1055.5350573992,3.608924,0,0.208906174664,9700,2017-05-22 12:59:07,18,11.604,1055.5350573992,3.608924,0.223694,0.60666996692,269.5,0,0,1024,1024,1024,1024,269.6,-4.5,64,3.868,3.868,3.868,0,0,0,6,GPS_Atti,
-34.0125591158118,19.2024368844516,1055.5350573992,3.608924,0,0.212207355872,9800,2017-05-22 12:59:07,18,11.604,1055.5350573992,3.608924,0.223694,0.60666996692,269.5,0,0,1024,1024,1024,1024,269.6,-4.5,64,3.868,3.868,3.868,0,0,0,6,GPS_Atti,
-34.0125591247312,19.2024368841522,1055.5350573992,3.608924,0,0.214545938624,9900,2017-05-22 12:59:07,18,11.604,1055.5350573992,3.608924,0.223694,0.60666996692,269.6,0,0,1024,1024,1024,1024,0,0,64,3.868,3.868,3.868,0,0,0,6,GPS_Atti,
-34.0125591594415,19.2024368862366,1055.5350573992,3.608924,0,0.22449639826,10000,2017-05-22 12:59:07,18,11.604,1055.5350573992,3.608924,0.223694,0.60666996692,269.6,0,0,1024,1024,1024,1024,269.6,-4.5,64,3.868,3.868,3.868,0,0,0,6,GPS_Atti,
-34.0125591860103,19.2024368838441,1055.5350573992,3.608924,0,0.231541017908,10100,2017-05-22 12:59:07,18,11.604,1055.5350573992,3.608924,0.223694,0.60666996692,269.7,0,0,1024,1024,1024,1024,269.6,-4.5,64,3.868,3.868,3.868,0,0,0,6,GPS_Atti,
-34.0125591973378,19.2024368849586,1055.5350573992,3.608924,0,0.2349983671,10200,2017-05-22 12:59:07,18,11.604,1055.5350573992,3.608924,0.223694,0.60666996692,269.7,0,0,1024,1024,1024,1024,269.6,-4.5,64,3.868,3.868,3.868,0,0,0,6,GPS_Atti,
-34.0125591972454,19.2024368884886,1055.5350573992,3.608924,0,0.235628944548,10300,2017-05-22 12:59:08,18,11.551,1055.5350573992,3.608924,0.223694,0.60666996692,269.6,0,0,1024,1024,1024,1024,269.6,-4.5,64,3.85033,3.85033,3.85033,0,0,0,6,GPS_Atti,
-34.012559185328,19.2024368995961,1055.5350573992,3.608924,0,0.23434055868,10400,2017-05-22 12:59:08,18,11.551,1055.5350573992,3.608924,0.223694,0.60666996692,269.7,0,0,1024,1024,1024,1024,0,0,64,3.85033,3.85033,3.85033,0,0,0,6,GPS_Atti,
-34.0125591719516,19.2024369056852,1055.5350573992,3.608924,0,0.231782487732,10500,2017-05-22 12:59:08,18,11.551,1055.5350573992,3.608924,0.223694,0.60666996692,269.7,0,0,1024,1024,1024,1024,269.6,-4.5,64,3.85033,3.85033,3.85033,0,0,0,6,GPS_Atti,
-34.012559160421,19.2024369089128,1055.5350573992,3.608924,0,0.229245086076,10600,2017-05-22 12:59:08,18,11.551,1055.5350573992,3.608924,0.223694,0.60666996692,269.6,0,0,1024,1024,1024,1024,269.6,-4.5,64,3.85033,3.85033,3.85033,0,0,0,6,GPS_Atti,
-34.0125591485472,19.2024369066921,1055.5350573992,3.608924,0,0.225563327428,10700,2017-05-22 12:59:08,18,11.551,1055.5350573992,3.608924,0.223694,0.60666996692,269.7,0,0,1024,1024,1024,1024,269.6,-4.5,64,3.85033,3.85033,3.85033,0,0,0,6,GPS_Atti,
-34.0125591422097,19.202436901624,1055.5350573992,3.608924,0,0.222819560936,10800,2017-05-22 12:59:08,18,11.551,1055.5350573992,3.608924,0.223694,0.60666996692,269.7,0,0,1024,1024,1024,1024,0,0,64,3.85033,3.85033,3.85033,0,0,0,6,GPS_Atti,
-34.0125591350681,19.2024368945017,1055.5350573992,3.608924,0,0.21944226424,10900,2017-05-22 12:59:08,18,11.551,1055.5350573992,3.608924,0.223694,0.60666996692,269.6,0,0,1024,1024,1024,1024,269.6,-4.5,64,3.85033,3.85033,3.85033,0,0,0,6,GPS_Atti,
-34.0125591364393,19.2024368918832,1055.5350573992,3.608924,0,0.219284127752,11000,2017-05-22 12:59:08,18,11.551,1055.5350573992,3.608924,0.223694,0.60666996692,269.6,0,0,1024,1024,1024,1024,269.6,-4.5,64,3.85033,3.85033,3.85033,0,0,0,6,GPS_Atti,
-34.0125591407453,19.2024368913626,1055.5350573992,3.608924,0,0.220351385004,11100,2017-05-22 12:59:08,18,11.551,1055.5350573992,3.608924,0.223694,0.60666996692,269.7,0,0,1024,1024,1024,1024,269.6,-4.5,64,3.85033,3.85033,3.85033,0,0,0,6,GPS_Atti,
-34.0125591630476,19.2024369054387,1055.5350573992,3.608924,0,0.229273957468,11300,2017-05-22 12:59:08,18,11.551,1055.5350573992,3.608924,0.223694,0.60666996692,269.6,0,0,1024,1024,1024,1024,269.6,-4.5,64,3.85033,3.85033,3.85033,0,0,0,6,GPS_Atti,
-34.0125591745001,19.2024369178145,1055.5350573992,3.608924,0,0.234882881532,11400,2017-05-22 12:59:09,18,11.587,1055.5350573992,3.608924,0.223694,0.60666996692,269.7,0,0,1024,1024,1024,1024,269.6,-4.5,64,3.86233,3.86233,3.86233,0,0,0,6,GPS_Atti,
-34.0125591885784,19.2024369287567,1055.5350573992,3.608924,0,0.240931438156,11500,2017-05-22 12:59:09,18,11.587,1055.5350573992,3.608924,0.223694,0.60666996692,269.7,0,0,1024,1024,1024,1024,269.6,-4.5,64,3.86233,3.86233,3.86233,0,0,0,6,GPS_Atti,
-34.0125592130392,19.2024370192378,1055.5350573992,3.608924,0,0.265994431084,11700,2017-05-22 12:59:09,18,11.587,1055.5350573992,3.608924,0.223694,0.60666996692,269.5,0,0,1024,1024,1024,1024,269.6,-4.5,64,3.86233,3.86233,3.86233,0,0,0,6,GPS_Atti,
-34.0125592118159,19.2024370565373,1055.5350573992,3.608924,0,0.273646006132,11800,2017-05-22 12:59:09,18,11.587,1055.5350573992,3.608924,0.223694,0.60666996692,269.5,0,0,1024,1024,1024,1024,269.6,-4.5,64,3.86233,3.86233,3.86233,0,0,0,6,GPS_Atti,
-34.0125592077094,19.2024370884815,1055.5350573992,3.608924,0,0.279637804224,11900,2017-05-22 12:59:09,18,11.587,1055.5350573992,3.608924,0.223694,0.60666996692,269.5,0,0,1024,1024,1024,1024,269.6,-4.5,64,3.86233,3.86233,3.86233,0,0,0,6,GPS_Atti,
-34.0125591995586,19.202437140848,1055.5350573992,3.608924,0,0.289572843912,12000,2017-05-22 12:59:09,18,11.587,1055.5350573992,3.608924,0.223694,0.60666996692,269.4,0,0,1024,1024,1024,1024,269.6,-4.5,64,3.86233,3.86233,3.86233,0,0,0,6,GPS_Atti,
-34.0125591972918,19.2024371900647,1055.5350573992,3.608924,0,0.300610573924,12100,2017-05-22 12:59:09,18,11.587,1055.5350573992,3.608924,0.223694,0.60666996692,269.5,0,0,1024,1024,1024,1024,269.6,-4.5,64,3.86233,3.86233,3.86233,0,0,0,6,GPS_Atti,
-34.0125591972918,19.2024371900647,1055.5350573992,3.608924,0,0.300610573924,12100,2017-05-22 12:59:09,18,11.587,1055.5350573992,3.608924,0.223694,0.60666996692,269.5,0,0,1024,1024,1024,1024,269.6,-4.5,64,3.86233,3.86233,3.86233,0,0,0,6,GPS_Atti,
-34.0125591986361,19.202437253052,1055.5350573992,3.608924,0,0.316110246336,12300,2017-05-22 12:59:09,18,11.587,1055.5350573992,3.608924,0.223694,0.60666996692,269.4,0,0,1024,1024,1024,1024,269.6,-4.5,64,3.86233,3.86233,3.86233,0,0,0,6,GPS_Atti,
-34.0125591995924,19.2024372943965,1055.5350573992,3.608924,0,0.32650427554,12400,2017-05-22 12:59:10,18,11.587,1055.5350573992,3.608924,0.223694,0.60666996692,269.4,0,0,1024,1024,1024,1024,269.6,-4.5,64,3.86233,3.86233,3.86233,0,0,0,6,GPS_Atti,
-34.0125592029331,19.2024373307895,1055.5350573992,3.608924,0,0.33627953832,12500,2017-05-22 12:59:10,18,11.375,1055.5350573992,3.608924,0.223694,0.60666996692,269.4,0,0,1024,1024,1024,1024,269.6,-4.5,64,3.79167,3.79167,3.79167,0,0,0,6,GPS_Atti,
-34.0125592080265,19.2024373762505,1055.5350573992,3.608924,0,0.34878281956,12600,2017-05-22 12:59:10,18,11.375,1055.5350573992,3.608924,0.223694,0.60666996692,269.5,0,0,1024,1024,1024,1024,269.6,-4.5,64,3.79167,3.79167,3.79167,0,0,0,6,GPS_Atti,
-34.0125592191817,19.2024374171635,1055.5350573992,3.608924,0,0.36139764936,12700,2017-05-22 12:59:10,18,11.375,1055.5350573992,3.608924,0.223694,0.60666996692,269.5,0,0,1024,1024,1024,1024,269.6,-4.5,64,3.79167,3.79167,3.79167,0,0,0,6,GPS_Atti,
-34.0125592317562,19.2024374667603,1055.5350573992,3.608924,0,0.37654856848,12800,2017-05-22 12:59:10,18,11.375,1055.5350573992,3.608924,0.223694,0.60666996692,269.5,0,0,1024,1024,1024,1024,269.6,-4.5,64,3.79167,3.79167,3.79167,0,0,0,6,GPS_Atti,
-34.0125592449254,19.2024375062149,1055.5350573992,3.608924,0,0.38922901508,12900,2017-05-22 12:59:10,18,11.375,1055.5350573992,3.608924,0.223694,0.60666996692,269.4,0,0,1024,1024,1024,1024,269.6,-4.5,64,3.79167,3.79167,3.79167,0,0,0,6,GPS_Atti,
-34.0125592476225,19.2024375135351,1055.5350573992,3.608924,0,0.39163058996,13000,2017-05-22 12:59:11,18,11.375,1055.5350573992,3.608924,0.223694,0.60666996692,269.5,0,0,1024,1024,1024,1024,269.6,-4.5,64,3.79167,3.79167,3.79167,0,0,0,6,GPS_Atti,
-34.0125592523279,19.2024375149135,1055.5350573992,3.608924,0,0.39288387084,13100,2017-05-22 12:59:11,18,11.375,1055.5350573992,3.608924,0.223694,0.60666996692,269.5,0,0,1024,1024,1024,1024,269.6,-4.5,64,3.79167,3.79167,3.79167,0,0,0,6,GPS_Atti,
-34.0125592779889,19.2024375325625,1055.5350573992,3.608924,0,0.4023622176,13200,2017-05-22 12:59:11,18,11.375,1055.5350573992,3.608924,0.223694,0.60666996692,269.5,0,0,1024,1024,1024,1024,269.6,-4.5,64,3.79167,3.79167,3.79167,0,0,0,6,GPS_Atti,
-34.0125592969155,19.2024375497472,1055.5350573992,3.608924,0,0.41045604988,13300,2017-05-22 12:59:11,18,11.375,1055.5350573992,3.608924,0.223694,0.60666996692,269.5,0,0,1024,1024,1024,1024,269.6,-4.5,64,3.79167,3.79167,3.79167,0,0,0,6,GPS_Atti,
-34.0125593022006,19.202437555999,1055.5350573992,3.608924,0,0.4130905644,13400,2017-05-22 12:59:11,18,11.375,1055.5350573992,3.608924,0.223694,0.60666996692,269.5,0,0,1024,1024,1024,1024,269.6,-4.5,64,3.79167,3.79167,3.79167,0,0,0,6,GPS_Atti,
-34.012559303553,19.2024375611857,1055.5350573992,3.608924,0,0.41467521012,13500,2017-05-22 12:59:11,18,11.458,1055.5350573992,3.608924,0.223694,0.60666996692,269.5,0,0,1024,1024,1024,1024,269.6,-4.5,64,3.81933,3.81933,3.81933,0,0,0,6,GPS_Atti,
-34.0125593225301,19.2024376251342,1055.5350573992,3.608924,0,0.43471458084,13900,2017-05-22 12:59:12,18,11.458,1055.5350573992,3.608924,0.223694,0.60666996692,269.7,0,0,1024,1024,1024,1024,269.6,-4.5,64,3.81933,3.81933,3.81933,0,0,0,6,GPS_Atti,
-34.0125592455532,19.2024378368602,1055.5350573992,3.608924,0,0.477526262,14500,2017-05-22 12:59:12,18,11.458,1055.5350573992,3.608924,0.223694,0.60666996692,269.6,0,0,1024,1024,1024,1024,0,0,64,3.81933,3.81933,3.81933,0,0,0,6,GPS_Atti,
-34.0125592604029,19.2024378947809,1055.5350573992,3.608924,0,0.49569227308,14600,2017-05-22 12:59:12,18,11.458,1055.5350573992,3.608924,0.223694,0.60666996692,269.6,0,0,1024,1024,1024,1024,0,0,64,3.81933,3.81933,3.81933,0,0,0,6,GPS_Atti,
-34.012559275289,19.2024379529407,1055.5350573992,3.608924,0,0.51394030516,14700,2017-05-22 12:59:12,18,11.458,1055.5350573992,3.608924,0.223694,0.60666996692,269.6,0,0,1024,1024,1024,1024,269.6,-4.5,64,3.81933,3.81933,3.81933,0,0,0,6,GPS_Atti,Tap the screen lightly to focus.
-34.0125592899409,19.2024379813449,1055.5350573992,3.608924,0,0.52397639472,14800,2017-05-22 12:59:12,18,11.458,1055.5350573992,3.608924,0.223694,0.60666996692,269.6,0,0,1024,1024,1024,1024,269.6,-4.5,64,3.81933,3.81933,3.81933,0,0,0,6,GPS_Atti,
-34.0125592972607,19.2024380099449,1055.5350573992,3.608924,0,0.53295277296,14900,2017-05-22 12:59:12,18,11.458,1055.5350573992,3.608924,0.223694,0.60666996692,269.5,0,0,1024,1024,1024,1024,269.6,-4.5,64,3.81933,3.81933,3.81933,0,0,0,6,GPS_Atti,
-34.0125592955786,19.2024380405614,1055.5350573992,3.608924,0,0.54113190708,15000,2017-05-22 12:59:12,18,11.458,1055.5350573992,3.608924,0.223694,0.60666996692,269.5,0,0,1024,1024,1024,1024,0,0,64,3.81933,3.81933,3.81933,0,0,0,6,GPS_Atti,
-34.0125592924625,19.2024380733165,1055.5350573992,3.608924,0,0.54973098872,15100,2017-05-22 12:59:12,18,11.458,1055.5350573992,3.608924,0.223694,0.60666996692,269.5,0,0,1024,1024,1024,1024,269.6,-4.5,64,3.81933,3.81933,3.81933,0,0,0,6,GPS_Atti,
-34.0125592889003,19.2024381440684,1055.5350573992,3.608924,0,0.56890093684,15200,2017-05-22 12:59:12,18,11.458,1055.5350573992,3.608924,0.223694,0.60666996692,269.5,0,0,1024,1024,1024,1024,269.6,-4.5,64,3.81933,3.81933,3.81933,0,0,0,6,GPS_Atti,
-34.0125592899319,19.2024382036801,1055.5350573992,3.608924,0,0.58572508436,15300,2017-05-22 12:59:12,18,11.484,1055.5350573992,3.608924,0.223694,0.60666996692,269.5,0,0,1024,1024,1024,1024,269.6,-4.5,64,3.828,3.828,3.828,0,0,0,6,GPS_Atti,
-34.0125592944118,19.2024382256678,1055.5350573992,3.608924,0,0.5925032998,15400,2017-05-22 12:59:13,18,11.484,1055.5350573992,3.608924,0.223694,0.60666996692,269.6,0,0,1024,1024,1024,1024,0,0,64,3.828,3.828,3.828,0,0,0,6,GPS_Atti,
-34.0125593000234,19.202438237315,1055.5350573992,3.608924,0,0.59653545216,15500,2017-05-22 12:59:13,18,11.484,1055.5350573992,3.608924,0.223694,0.60666996692,269.6,0,0,1024,1024,1024,1024,0,0,64,3.828,3.828,3.828,0,0,0,6,GPS_Atti,
-34.0125593052947,19.2024382208738,1055.5350573992,3.608924,0,0.5926509376,15600,2017-05-22 12:59:13,18,11.484,1055.5350573992,3.608924,0.223694,0.60666996692,269.6,0,0,1024,1024,1024,1024,0,0,64,3.828,3.828,3.828,0,0,0,6,GPS_Atti,
-34.0125593084156,19.2024382094437,1055.5350573992,3.608924,0,0.58989175116,15700,2017-05-22 12:59:13,18,11.484,1055.5350573992,3.608924,0.223694,0.60666996692,269.7,0,0,1024,1024,1024,1024,0,0,64,3.828,3.828,3.828,0,0,0,6,GPS_Atti,
-34.012559304535,19.2024382212149,1055.5350573992,3.608924,0,0.59264109508,15800,2017-05-22 12:59:13,18,11.484,1055.5350573992,3.608924,0.223694,0.60666996692,269.7,0,0,1024,1024,1024,1024,269.6,-4.5,64,3.828,3.828,3.828,0,0,0,6,GPS_Atti,
-34.0125592991278,19.2024382353198,1055.5350573992,3.608924,0,0.59585303744,15900,2017-05-22 12:59:13,18,11.484,1055.5350573992,3.608924,0.223694,0.60666996692,269.7,0,0,1024,1024,1024,1024,269.6,-4.5,64,3.828,3.828,3.828,0,0,0,6,GPS_Atti,
-34.0125593212876,19.2024382436812,1055.5350573992,3.608924,0,0.60125330008,16000,2017-05-22 12:59:13,18,11.484,1055.5350573992,3.608924,0.223694,0.60666996692,269.6,0,0,1024,1024,1024,1024,269.6,-4.5,64,3.828,3.828,3.828,0,0,0,6,GPS_Atti,
-34.0125593337737,19.2024382527989,1055.5350573992,3.608924,0,0.60555776216,16100,2017-05-22 12:59:13,18,11.484,1055.5350573992,3.608924,0.223694,0.60666996692,269.6,0,1,1024,1024,1024,1024,269.6,-4.5,64,3.828,3.828,3.828,0,0,0,6,GPS_Atti,
-34.0125593423222,19.2024382564684,1055.5350573992,3.608924,0,0.60779529504,16200,2017-05-22 12:59:13,18,11.484,1055.5350573992,3.608924,0.223694,0.60779529504,269.7,0,0,1024,1024,1024,1024,269.6,-4.5,64,3.828,3.828,3.828,0,0,0,6,GPS_Atti,
-34.0125593455824,19.2024382623611,1055.5350573992,3.608924,0,0.60990159432,16300,2017-05-22 12:59:14,18,11.476,1055.5350573992,3.608924,0.223694,0.60990159432,269.6,0,0,1024,1024,1024,1024,269.6,-4.5,64,3.82533,3.82533,3.82533,0,0,0,6,GPS_Atti,
-34.0125593566322,19.2024382663787,1055.5350573992,3.608924,0,0.61261156816,16400,2017-05-22 12:59:14,18,11.476,1055.5350573992,3.608924,0.223694,0.61261156816,269.7,0,0,1024,1024,1024,1024,0,0,64,3.82533,3.82533,3.82533,0,0,0,6,GPS_Atti,
-34.0125593654022,19.2024382751283,1055.5350573992,3.608924,0,0.61631563652,16500,2017-05-22 12:59:14,18,11.476,1055.5350573992,3.608924,0.223694,0.61631563652,269.8,0,0,1024,1024,1024,1024,269.6,-4.5,64,3.82533,3.82533,3.82533,0,0,0,6,GPS_Atti,
-34.0125593764658,19.202438243167,1055.5350573992,3.608924,0,0.6091207544,16600,2017-05-22 12:59:14,18,11.476,1055.5350573992,3.608924,0.223694,0.61631563652,269.7,0,0,1024,1024,1024,1024,269.6,-4.5,64,3.82533,3.82533,3.82533,0,0,0,6,GPS_Atti,
-34.0125593851568,19.202438221231,1055.5350573992,3.608924,0,0.60440618732,16700,2017-05-22 12:59:14,18,11.476,1055.5350573992,3.608924,0.223694,0.61631563652,269.9,0,0,1024,1024,1024,1024,269.6,-4.5,64,3.82533,3.82533,3.82533,0,0,0,6,GPS_Atti,
-34.0125594287771,19.2024382308358,1055.5350573992,3.608924,0,0.61387141072,16800,2017-05-22 12:59:14,18,11.476,1055.5350573992,3.608924,0.223694,0.61631563652,269.7,0,0,1024,1024,1024,1024,269.6,-4.5,64,3.82533,3.82533,3.82533,0,0,0,6,GPS_Atti,
-34.0125594626423,19.20243824326,1055.5350573992,3.608924,0,0.6227526446,16900,2017-05-22 12:59:14,18,11.476,1055.5350573992,3.608924,0.223694,0.6227526446,269.8,0,0,1024,1024,1024,1024,269.6,-4.5,64,3.82533,3.82533,3.82533,0,0,0,6,GPS_Atti,
-34.0125594816022,19.2024382524437,1055.5350573992,3.608924,0,0.62838256604,17000,2017-05-22 12:59:14,18,11.476,1055.5350573992,3.608924,0.223694,0.62838256604,269.7,0,0,1024,1024,1024,1024,269.6,-4.5,64,3.82533,3.82533,3.82533,0,0,0,6,GPS_Atti,
-34.0125594920536,19.2024382696471,1055.5350573992,3.608924,0,0.63475723816,17100,2017-05-22 12:59:14,18,11.476,1055.5350573992,3.608924,0.223694,0.63475723816,269.7,0,0,1024,1024,1024,1024,269.6,-4.5,64,3.82533,3.82533,3.82533,0,0,0,6,GPS_Atti,
-34.0125594901336,19.2024382914455,1055.5350573992,3.608924,0,0.64029201524,17200,2017-05-22 12:59:14,18,11.476,1055.5350573992,3.608924,0.223694,0.64029201524,269.7,0,0,1024,1024,1024,1024,269.6,-4.5,64,3.82533,3.82533,3.82533,0,0,0,6,GPS_Atti,
-34.0125594825907,19.202438320185,1055.5350573992,3.608924,0,0.6468012018,17300,2017-05-22 12:59:15,18,11.468,1055.5350573992,3.608924,0.223694,0.6468012018,269.7,0,0,1024,1024,1024,1024,269.6,-4.5,64,3.82267,3.82267,3.82267,0,0,0,6,GPS_Atti,
-34.0125594706053,19.2024383354822,1055.5350573992,3.608924,0,0.64900592628,17400,2017-05-22 12:59:15,18,11.468,1055.5350573992,3.608924,0.223694,0.64900592628,269.7,0,0,1024,1024,1024,1024,269.6,-4.5,64,3.82267,3.82267,3.82267,0,0,0,6,GPS_Atti,
-34.0125594550171,19.2024383589142,1055.5350573992,3.608924,0,0.65292653008,17500,2017-05-22 12:59:15,18,11.468,1055.5350573992,3.608924,0.223694,0.65292653008,269.7,0,0,1024,1024,1024,1024,269.6,-4.5,64,3.82267,3.82267,3.82267,0,0,0,6,GPS_Atti,
-34.0125594378769,19.2024384050831,1055.5350573992,3.608924,0,0.66296918132,17600,2017-05-22 12:59:15,18,11.468,1055.5350573992,3.608924,0.223694,0.66296918132,269.6,0,0,1024,1024,1024,1024,269.6,-4.5,64,3.82267,3.82267,3.82267,0,0,0,6,GPS_Atti,
-34.0125594183836,19.2024384563819,1055.5350573992,3.608924,0,0.67429792184,17700,2017-05-22 12:59:15,18,11.468,1055.5350573992,3.608924,0.223694,0.67429792184,269.6,0,0,1024,1024,1024,1024,269.6,-4.5,64,3.82267,3.82267,3.82267,0,0,0,6,GPS_Atti,
-34.0125594100012,19.2024384810288,1055.5350573992,3.608924,0,0.67996393252,17800,2017-05-22 12:59:15,18,11.468,1055.5350573992,3.608924,0.223694,0.67996393252,269.6,0,0,1024,1024,1041,1024,269.6,-4.5,64,3.82267,3.82267,3.82267,0,0,0,6,GPS_Atti,
-34.0125594013436,19.2024385058011,1055.5350573992,3.608924,0,0.68567587496,17900,2017-05-22 12:59:15,18,11.468,1055.5350573992,3.608924,0.223694,0.68567587496,269.5,0,0,1024,1024,1060,1024,269.6,-4.5,64,3.82267,3.82267,3.82267,0,0,0,6,GPS_Atti,
-34.0125594069136,19.2024385343771,1055.5350573992,3.608924,0,0.69444556028,18000,2017-05-22 12:59:15,18,11.468,1055.5350573992,3.608924,0.223694,0.69444556028,269.5,0,0,1024,1024,1111,1024,269.6,-4.5,64,3.82267,3.82267,3.82267,0,0,0,6,GPS_Atti,
-34.0125594124096,19.2024385667356,1055.5350573992,3.608924,0,0.7042651144,18100,2017-05-22 12:59:15,18,11.468,1055.5350573992,3.608924,0.223694,0.7042651144,269.5,0,0,1024,1024,1188,1024,269.6,-4.5,64,3.82267,3.82267,3.82267,0,0,0,6,GPS_Atti,
-34.012559398234,19.2024385719618,1055.5350573992,3.608924,0,0.70381563932,18200,2017-05-22 12:59:15,18,11.468,1055.5350573992,3.608924,0.223694,0.7042651144,269.5,0,0,1054,1024,1233,1024,269.6,-4.5,64,3.82267,3.82267,3.82267,0,0,0,6,GPS_Atti,
-34.0125593927902,19.2024385806384,1055.5350573992,3.608924,0,0.70553151864,18300,2017-05-22 12:59:16,18,11.442,1055.5350573992,3.608924,0.223694,0.70553151864,269.6,0,0,1168,1024,1235,1024,269.6,-4.5,64,3.814,3.814,3.814,0,0,0,6,GPS_Atti,
-34.0125594022131,19.2024385590434,1055.5350573992,3.608924,0,0.7007218072,18400,2017-05-22 12:59:16,18,11.442,1055.5350573992,3.608924,0.223694,0.70553151864,269.5,0,0,1198,1024,1239,1024,269.6,-4.5,64,3.814,3.814,3.814,0,0,0,6,GPS_Atti,
-34.0125594234285,19.2024385395742,1055.5350573992,3.608924,0,0.69818899872,18500,2017-05-22 12:59:16,18,11.442,1055.5350573992,3.608924,0.223694,0.70553151864,269.6,0,0,1221,1024,1261,1024,269.6,-4.5,64,3.814,3.814,3.814,0,0,0,6,GPS_Atti,
-34.0125594707226,19.2024385744382,1055.8631413992,3.937008,0,0.714648973,18700,2017-05-22 12:59:16,18,11.442,1055.8631413992,3.937008,0.223694,0.714648973,269.6,0,0,1237,1024,1282,1024,269.6,-4.5,64,3.814,3.814,3.814,0,0,0,6,GPS_Atti,
-34.0125594707226,19.2024385744382,1055.8631413992,3.937008,0,0.714648973,18700,2017-05-22 12:59:16,18,11.442,1055.8631413992,3.937008,0.223694,0.714648973,269.6,0,0,1262,1024,1303,1024,269.6,-4.5,64,3.814,3.814,3.814,0,0,0,6,GPS_Atti,
-34.0125594881168,19.2024385144176,1055.8631413992,3.937008,0,0.70065947124,18800,2017-05-22 12:59:16,18,11.442,1055.8631413992,3.937008,0.223694,0.714648973,269.6,0,0,1276,1024,1307,1024,269.6,-4.5,64,3.814,3.814,3.814,0,0,0,6,GPS_Atti,
-34.0125595076557,19.2024384209074,1056.1912253992,4.265092,0.223694,0.67815618968,18900,2017-05-22 12:59:16,18,11.442,1056.1912253992,4.265092,0.223694,0.714648973,269.5,0,0,1286,1024,1307,1024,269.6,-4.5,64,3.814,3.814,3.814,0,0,0,6,GPS_Atti,
-34.0125595374864,19.2024382595998,1056.1912253992,4.265092,0.223694,0.63991471864,19000,2017-05-22 12:59:16,18,11.442,1056.1912253992,4.265092,0.223694,0.714648973,269.5,0,0,1296,1024,1314,1024,269.6,-4.5,64,3.814,3.814,3.814,0,0,0,6,GPS_Atti,
-34.0125595610955,19.2024380561648,1056.5193093992,4.593176,0.447388,0.59141078008,19100,2017-05-22 12:59:16,18,11.442,1056.5193093992,4.593176,0.447388,0.714648973,269.5,0,0,1295,1024,1313,1024,269.6,-4.5,64,3.814,3.814,3.814,0,0,0,6,GPS_Atti,
-34.0125595552063,19.2024377970542,1056.8473933992,4.92126,0.447388,0.52575132916,19200,2017-05-22 12:59:16,18,11.442,1056.8473933992,4.92126,0.447388,0.714648973,269.4,0,0,1280,1024,1310,1024,269.6,-4.5,64,3.814,3.814,3.814,0,0,0,6,GPS_Atti,
-34.0125595881513,19.2024371123578,1057.1754773992,5.249344,0.671082,0.39118439572,19400,2017-05-22 12:59:17,18,11.487,1057.1754773992,5.249344,0.671082,0.714648973,269.4,0,0,1273,1024,1311,1024,269.6,-4.5,64,3.829,3.829,3.829,0,0,0,6,GPS_Atti,
-34.0125596318987,19.202436693321,1057.5035613992,5.577428,0.671082,0.35468505072,19500,2017-05-22 12:59:17,18,11.487,1057.5035613992,5.577428,0.671082,0.714648973,269.3,0,0,1285,1024,1312,1024,269.6,-4.5,64,3.829,3.829,3.829,0,0,0,6,GPS_Atti,
-34.0125597185555,19.2024362279482,1057.5035613992,5.577428,0.894776,0.37954069456,19600,2017-05-22 12:59:17,18,11.487,1057.5035613992,5.577428,0.894776,0.714648973,269.3,0,0,1294,1024,1327,1024,269.6,-4.5,64,3.829,3.829,3.829,0,0,0,6,GPS_Atti,
-34.0125598088625,19.202435737811,1057.8316453992,5.905512,0.894776,0.45604988336,19700,2017-05-22 12:59:17,18,11.487,1057.8316453992,5.905512,0.894776,0.714648973,269.4,0,0,1350,1024,1334,1024,269.6,-4.5,64,3.829,3.829,3.829,0,0,0,6,GPS_Atti,
-34.012560143923,19.2024346008766,1058.1597293992,6.233596,1.11847,0.76182417136,19900,2017-05-22 12:59:17,18,11.487,1058.1597293992,6.233596,1.11847,0.76182417136,269.5,0,0,1353,1024,1334,1024,269.6,-4.5,64,3.829,3.829,3.829,0,0,0,6,GPS_Atti,
-34.0125604089335,19.2024339214904,1058.4878133992,6.56168,1.342164,0.97935698672,20000,2017-05-22 12:59:17,18,11.487,1058.4878133992,6.56168,1.342164,0.97935698672,269.5,0,0,1363,1024,1334,1024,269.6,-4.5,64,3.829,3.829,3.829,0,0,0,6,GPS_Atti,
-34.0125606336922,19.2024331806463,1058.8158973992,6.889764,1.565858,1.20661421184,20100,2017-05-22 12:59:17,18,11.487,1058.8158973992,6.889764,1.565858,1.20661421184,269.5,0,0,1362,1024,1334,1028,269.6,-4.5,64,3.829,3.829,3.829,0,0,0,6,GPS_Atti,
-34.0125609753104,19.2024314622417,1059.1439813992,7.217848,1.789552,1.71254598656,20300,2017-05-22 12:59:17,18,11.487,1059.1439813992,7.217848,1.789552,1.71254598656,269.3,0,0,1383,1024,1351,1029,0,0,64,3.829,3.829,3.829,0,0,0,6,GPS_Atti,
-34.0125612376772,19.2024305109123,1059.4720653992,7.545932,1.789552,2.01124022184,20400,2017-05-22 12:59:18,18,11.487,1059.4720653992,7.545932,1.789552,2.01124022184,269.3,0,0,1391,1024,1372,1030,269.6,-4.5,64,3.829,3.829,3.829,0,0,0,6,GPS_Atti,
-34.0125614783026,19.2024294741954,1059.8001493992,7.874016,2.013246,2.3308071612,20500,2017-05-22 12:59:18,18,11.487,1059.8001493992,7.874016,2.013246,2.3308071612,269.3,0,0,1402,1024,1394,1024,269.6,-4.5,64,3.829,3.829,3.829,0,0,0,6,GPS_Atti,
-34.0125617678098,19.2024283545674,1060.1282333992,8.2021,2.460634,2.68207357664,20600,2017-05-22 12:59:18,18,11.646,1060.1282333992,8.2021,2.460634,2.68207357664,269.5,0,0,1403,1024,1401,1086,269.6,-4.5,64,3.882,3.882,3.882,0,0,0,6,GPS_Atti,
-34.0125624257573,19.202425755811,1060.7844013992,8.858268,2.908022,3.4980644164,20800,2017-05-22 12:59:18,18,11.646,1060.7844013992,8.858268,2.908022,3.4980644164,269.5,0,0,1405,1024,1402,1104,269.8,-4.5,64,3.882,3.882,3.882,0,0,0,6,GPS_Atti,
-34.0125627704769,19.2024242838943,1061.1124853992,9.186352,3.131716,3.9574476332,20900,2017-05-22 12:59:18,18,11.646,1061.1124853992,9.186352,3.131716,3.9574476332,269.4,0,0,1429,1024,1402,1132,270,-4.5,64,3.882,3.882,3.882,0,0,0,6,GPS_Atti,
-34.0125632002486,19.2024227379399,1061.7686533992,9.84252,3.35541,4.4497376752,21000,2017-05-22 12:59:18,18,11.646,1061.7686533992,9.84252,3.35541,4.4497376752,269.5,0,0,1443,1024,1402,1189,270.4,-4.5,64,3.882,3.882,3.882,0,0,0,6,GPS_Atti,
-34.0125635861702,19.2024211011339,1062.0967373992,10.170604,3.35541,4.9620080328,21100,2017-05-22 12:59:18,18,11.646,1062.0967373992,10.170604,3.35541,4.9620080328,269.7,0,0,1459,1115,1382,1227,271.2,-4.5,64,3.882,3.882,3.882,0,0,0,6,GPS_Atti,
-34.0125640896965,19.2024193640014,1062.4248213992,10.498688,3.802798,5.5183072632,21200,2017-05-22 12:59:18,18,11.646,1062.4248213992,10.498688,3.802798,5.5183072632,269.9,0,0,1432,1297,1363,1272,272.3,-4.5,64,3.882,3.882,3.882,0,0,0,6,GPS_Atti,
-34.0125645269492,19.2024175237365,1062.7529053992,10.826772,4.026492,6.0953414024,21300,2017-05-22 12:59:18,18,11.646,1062.7529053992,10.826772,4.026492,6.0953414024,270.4,0,0,1438,1279,1354,1305,273.8,-4.5,64,3.882,3.882,3.882,0,0,0,6,GPS_Atti,
-34.0125649945349,19.2024156165675,1063.0809893992,11.154856,4.250186,6.6955054636,21400,2017-05-22 12:59:19,18,11.646,1063.0809893992,11.154856,4.250186,6.6955054636,271.1,0,0,1438,1194,1318,1378,276.1,-4.5,64,3.882,3.882,3.882,0,0,0,6,GPS_Atti,
-34.0125653613867,19.202413601733,1063.4090733992,11.48294,4.47388,7.3142062708,21500,2017-05-22 12:59:19,18,11.646,1063.4090733992,11.48294,4.47388,7.3142062708,272.4,0,0,1448,1153,1301,1398,278.9,-4.5,64,3.882,3.882,3.882,0,0,0,6,GPS_Atti,
-34.0125657768736,19.2024115193743,1063.7371573992,11.811024,4.47388,7.9587929056,21600,2017-05-22 12:59:19,18,11.646,1063.7371573992,11.811024,4.47388,7.9587929056,274.1,0,0,1452,1080,1301,1412,281.9,-4.5,64,3.882,3.882,3.882,0,0,0,6,GPS_Atti,
-34.0125661151837,19.2024093329065,1064.0652413992,12.139108,4.921268,8.624836234,21700,2017-05-22 12:59:19,18,11.554,1064.0652413992,12.139108,4.921268,8.624836234,276.6,0,0,1464,1061,1302,1440,288.8,-4.5,64,3.85133,3.85133,3.85133,0,0,0,6,GPS_Atti,
-34.0125668745515,19.2024045210776,1064.3933253992,12.467192,5.368656,10.095308722,21900,2017-05-22 12:59:19,18,11.554,1064.3933253992,12.467192,5.368656,10.095308722,282.1,0,0,1468,1054,1325,1418,291.9,-4.5,64,3.85133,3.85133,3.85133,0,0,0,6,GPS_Atti,
-34.0125672592144,19.2024019102988,1064.3933253992,12.467192,5.59235,10.8915357816,22000,2017-05-22 12:59:19,18,11.554,1064.3933253992,12.467192,5.59235,10.8915357816,285.6,0,0,1466,1054,1347,1389,0,0,64,3.85133,3.85133,3.85133,0,0,0,6,GPS_Atti,
-34.012567533503,19.202399174062,1064.7214093992,12.795276,6.0621074,11.7137799024,22100,2017-05-22 12:59:19,18,11.554,1064.7214093992,12.795276,6.0621074,11.7137799024,288.9,0,0,1465,1048,1391,1339,296.8,-4.5,64,3.85133,3.85133,3.85133,0,0,0,6,GPS_Atti,
-34.0125678712228,19.2023962326068,1065.0494933992,13.12336,6.2858014,12.6035437104,22200,2017-05-22 12:59:19,18,11.554,1065.0494933992,13.12336,6.2858014,12.6035437104,292,0,0,1465,1040,1416,1316,0,0,64,3.85133,3.85133,3.85133,0,0,0,6,GPS_Atti,
-34.0125680743825,19.202393161609,1065.3775773992,13.451444,6.7331894,13.5197182804,22300,2017-05-22 12:59:19,18,11.554,1065.3775773992,13.451444,6.7331894,13.5197182804,294.5,0,0,1457,1024,1409,1317,300.2,-4.5,64,3.85133,3.85133,3.85133,0,0,0,6,GPS_Atti,
-34.0125682879595,19.2023898604396,1065.7056613992,13.779528,7.0016222,14.5063652936,22400,2017-05-22 12:59:20,18,11.554,1065.7056613992,13.779528,7.0016222,14.5063652936,296.7,0,0,1451,1024,1408,1296,301.6,-4.5,64,3.85133,3.85133,3.85133,0,0,0,6,GPS_Atti,
-34.0125683637456,19.2023864707821,1066.0337453992,14.107612,7.2476856,15.5094165068,22500,2017-05-22 12:59:20,18,11.554,1066.0337453992,14.107612,7.2476856,15.5094165068,298.3,0,0,1450,1024,1406,1270,302.9,-4.5,64,3.85133,3.85133,3.85133,0,0,0,6,GPS_Atti,
-34.0125684735777,19.2023829470941,1066.6899133992,14.76378,7.4713796,16.5574808448,22600,2017-05-22 12:59:20,18,11.554,1066.6899133992,14.76378,7.4713796,16.5574808448,299.9,0,0,1451,1024,1406,1247,303.8,-4.5,64,3.85133,3.85133,3.85133,0,0,0,6,GPS_Atti,
-34.0125684673163,19.2023793712779,1067.0179973992,15.091864,7.4713796,17.6145674928,22700,2017-05-22 12:59:20,18,11.554,1067.0179973992,15.091864,7.4713796,17.6145674928,301.5,0,0,1456,1024,1406,1225,304.6,-4.5,64,3.85133,3.85133,3.85133,0,0,0,6,GPS_Atti,
-34.0125685102649,19.2023756892367,1067.3460813992,15.419948,7.717443,18.7093838008,22800,2017-05-22 12:59:20,18,11.409,1067.3460813992,15.419948,7.717443,18.7093838008,302.5,0,0,1454,1024,1407,1224,305.4,-4.5,64,3.803,3.803,3.803,0,0,0,6,GPS_Atti,
-34.0125684391442,19.2023719581368,1067.6741653992,15.748032,7.717443,19.8133864608,22900,2017-05-22 12:59:20,18,11.409,1067.6741653992,15.748032,7.717443,19.8133864608,303.5,0,0,1456,1024,1405,1122,305.6,-4.5,64,3.803,3.803,3.803,0,0,0,6,GPS_Atti,
-34.012568416434,19.2023680876581,1068.3303333992,16.4042,7.941137,20.9645676,23000,2017-05-22 12:59:20,18,11.409,1068.3303333992,16.4042,7.941137,20.9645676,304.3,0,0,1462,1024,1405,1024,305.6,-4.5,64,3.803,3.803,3.803,0,0,0,6,GPS_Atti,
-34.0125682563465,19.2023641874517,1068.6584173992,16.732284,7.941137,22.1187014952,23100,2017-05-22 12:59:20,18,11.409,1068.6584173992,16.732284,7.941137,22.1187014952,305,0,0,1460,1024,1372,1024,305.6,-4.5,64,3.803,3.803,3.803,0,0,0,6,GPS_Atti,
-34.0125681062821,19.2023600737359,1068.9865013992,17.060368,8.2095698,23.33989576,23200,2017-05-22 12:59:20,18,11.409,1068.9865013992,17.060368,8.2095698,23.33989576,305.4,0,0,1469,1024,1335,976,305.6,-4.5,64,3.803,3.803,3.803,0,0,0,6,GPS_Atti,
-34.0125678217767,19.2023559540518,1069.3145853992,17.388452,8.2095698,24.5586293948,23300,2017-05-22 12:59:21,18,11.409,1069.3145853992,17.388452,8.2095698,24.5586293948,305.4,0,0,1488,1024,1415,798,304.8,-4.5,64,3.803,3.803,3.803,0,0,0,6,GPS_Atti,
-34.0125675132289,19.2023517245721,1069.6426693992,17.716536,8.4332638,25.8122383588,23400,2017-05-22 12:59:21,18,11.409,1069.6426693992,17.716536,8.4332638,25.8122383588,305.3,0,0,1493,1024,1433,778,303.6,-4.5,64,3.803,3.803,3.803,0,0,0,6,GPS_Atti,
-34.0125670511107,19.2023474738804,1069.9707533992,18.04462,8.6793272,27.0686688452,23500,2017-05-22 12:59:21,18,11.409,1069.9707533992,18.04462,8.6793272,27.0686688452,304.9,0,0,1498,1024,1476,806,302.7,-4.5,64,3.803,3.803,3.803,0,0,0,6,GPS_Atti,
-34.0125664886347,19.202343117439,1070.2988373992,18.372704,8.94776,28.3568578628,23600,2017-05-22 12:59:21,18,11.409,1070.2988373992,18.372704,8.94776,28.3568578628,304.2,0,0,1514,1024,1473,826,301.9,-4.5,64,3.803,3.803,3.803,0,0,0,6,GPS_Atti,
-34.0125657799367,19.2023387213745,1070.9550053992,19.028872,9.2161928,29.6562673532,23700,2017-05-22 12:59:21,18,11.409,1070.9550053992,19.028872,9.2161928,29.6562673532,303.3,0,0,1520,1024,1468,830,301.2,-4.5,64,3.803,3.803,3.803,0,0,0,6,GPS_Atti,
-34.0125650000065,19.2023339936699,1071.2830893992,19.356956,9.4846256,31.0584655608,23800,2017-05-22 12:59:21,18,11.507,1071.2830893992,19.356956,9.4846256,31.0584655608,302.3,0,0,1524,1024,1467,944,300.9,-4.5,64,3.83567,3.83567,3.83567,0,0,0,6,GPS_Atti,
-34.012564092609,19.2023292546489,1071.9392573992,20.013124,9.7754278,32.4661427712,23900,2017-05-22 12:59:21,18,11.507,1071.9392573992,20.013124,9.7754278,32.4661427712,301.5,0,0,1526,1024,1507,1024,300.9,-4.5,64,3.83567,3.83567,3.83567,0,0,0,6,GPS_Atti,
-34.0125630719662,19.2023241860755,1072.5954253992,20.669292,10.0438606,33.976707124,24000,2017-05-22 12:59:21,18,11.507,1072.5954253992,20.669292,10.0438606,33.976707124,300.9,0,0,1526,1024,1581,1024,300.9,-4.5,64,3.83567,3.83567,3.83567,0,0,0,6,GPS_Atti,
-34.012561929726,19.2023191240233,1073.2515933992,21.32546,10.3346628,35.489830532,24100,2017-05-22 12:59:21,18,11.507,1073.2515933992,21.32546,10.3346628,35.489830532,300.7,0,0,1518,1024,1600,1024,300.9,-4.5,64,3.83567,3.83567,3.83567,0,0,0,6,GPS_Atti,
-34.0125606957473,19.2023137462361,1073.9077613992,21.981628,10.8267896,37.103675728,24200,2017-05-22 12:59:21,18,11.507,1073.9077613992,21.981628,10.8267896,37.103675728,300.6,0,0,1520,1024,1622,1024,300.9,-4.5,64,3.83567,3.83567,3.83567,0,0,0,6,GPS_Atti,
-34.0125593353965,19.2023083430876,1074.5639293992,22.637796,11.0952224,38.731300452,24300,2017-05-22 12:59:22,18,11.507,1074.5639293992,22.637796,11.0952224,38.731300452,300.5,0,0,1529,1024,1640,1024,300.9,-4.5,64,3.83567,3.83567,3.83567,0,0,0,6,GPS_Atti,
-34.0125577796018,19.2023024531549,1075.5481813992,23.622048,11.6097186,40.513124656,24400,2017-05-22 12:59:22,18,11.507,1075.5481813992,23.622048,11.6097186,40.513124656,300.4,0,0,1521,1024,1665,1024,300.9,-4.5,64,3.83567,3.83567,3.83567,0,0,0,6,GPS_Atti,
-34.0125561081067,19.2022965875706,1076.8605173992,24.934384,11.967629,42.296261196,24500,2017-05-22 12:59:22,18,11.507,1076.8605173992,24.934384,11.967629,42.296261196,300.4,0,0,1514,1024,1663,1024,300.9,-4.5,64,3.83567,3.83567,3.83567,0,0,0,6,GPS_Atti,
-34.0125542925274,19.202290316102,1078.1728533992,26.24672,12.4597558,44.211615588,24600,2017-05-22 12:59:22,18,11.507,1078.1728533992,26.24672,12.4597558,44.211615588,300.5,0,0,1513,1024,1666,1024,300.9,-4.5,64,3.83567,3.83567,3.83567,0,0,0,6,GPS_Atti,
-34.012552401597,19.2022841211927,1079.4851893992,27.559056,12.4597558,46.112862368,24700,2017-05-22 12:59:22,18,11.507,1079.4851893992,27.559056,12.4597558,46.112862368,300.4,0,0,1521,1024,1674,1024,300.9,-4.5,64,3.83567,3.83567,3.83567,0,0,0,6,GPS_Atti,
-34.0125503687869,19.202277604482,1080.7975253992,28.871392,12.750558,48.122704952,24800,2017-05-22 12:59:22,18,11.344,1080.7975253992,28.871392,12.750558,48.122704952,300.4,0,0,1526,1024,1684,1024,300.9,-4.5,63,3.78133,3.78133,3.78133,0,0,0,6,GPS_Atti,
-34.0125482941439,19.2022711918933,1082.1098613992,30.183728,13.0413602,50.10990974,24900,2017-05-22 12:59:22,18,11.344,1082.1098613992,30.183728,13.0413602,50.10990974,300.3,0,0,1530,1024,1684,1024,300.9,-4.5,63,3.78133,3.78133,3.78133,0,0,0,6,GPS_Atti,
-34.012546260824,19.2022645890637,1083.4221973992,31.496064,13.3321624,52.16043474,25000,2017-05-22 12:59:22,18,11.344,1083.4221973992,31.496064,13.3321624,52.16043474,300.3,0,0,1534,1024,1684,1024,300.9,-4.5,63,3.78133,3.78133,3.78133,0,0,0,6,GPS_Atti,
-34.0125441579971,19.2022580551974,1084.7345333992,32.8084,13.533487,54.198820632,25100,2017-05-22 12:59:22,18,11.344,1084.7345333992,32.8084,13.533487,54.198820632,300.4,0,0,1546,1024,1684,1024,300.9,-4.5,63,3.78133,3.78133,3.78133,0,0,0,6,GPS_Atti,
-34.0125419955937,19.2022510952218,1086.0468693992,34.120736,13.6229646,56.374017552,25200,2017-05-22 12:59:22,18,11.344,1086.0468693992,34.120736,13.6229646,56.374017552,300.4,0,0,1552,1024,1684,1024,300.9,-4.5,63,3.78133,3.78133,3.78133,0,0,0,6,GPS_Atti,
-34.012539751768,19.2022442677162,1087.3592053992,35.433072,13.9137668,58.518046492,25300,2017-05-22 12:59:23,18,11.344,1087.3592053992,35.433072,13.9137668,58.518046492,300.4,0,0,1551,1024,1684,1010,300.9,-4.5,63,3.78133,3.78133,3.78133,0,0,0,6,GPS_Atti,
-34.0125375022127,19.2022371387064,1088.3434573992,36.417324,14.1374608,60.758532128,25400,2017-05-22 12:59:23,18,11.344,1088.3434573992,36.417324,14.1374608,60.758532128,300.4,0,0,1550,1023,1684,973,300.9,-4.5,63,3.78133,3.78133,3.78133,0,0,0,6,GPS_Atti,
-34.0125351541512,19.2022301151725,1089.6557933992,37.72966,14.428263,62.977036136,25500,2017-05-22 12:59:23,18,11.344,1089.6557933992,37.72966,14.428263,62.977036136,300.4,0,0,1550,1023,1684,973,300.8,-4.5,63,3.78133,3.78133,3.78133,0,0,0,6,GPS_Atti,
-34.0125327411147,19.2022228274221,1090.9681293992,39.041996,14.7190652,65.283138572,25600,2017-05-22 12:59:23,18,11.344,1090.9681293992,39.041996,14.7190652,65.283138572,300.3,0,0,1557,1021,1684,1024,300.8,-4.5,63,3.78133,3.78133,3.78133,0,0,0,6,GPS_Atti,
-34.0125302278084,19.2022156175745,1091.9523813992,40.026248,15.0098674,67.576117648,25700,2017-05-22 12:59:23,18,11.344,1091.9523813992,40.026248,15.0098674,67.576117648,300.3,0,0,1565,1022,1684,1024,300.8,-4.5,63,3.78133,3.78133,3.78133,0,0,0,6,GPS_Atti,
-34.0125276802544,19.2022082461131,1093.2647173992,41.338584,15.5243636,69.924214836,25800,2017-05-22 12:59:23,18,11.428,1093.2647173992,41.338584,15.5243636,69.924214836,300.2,0,0,1565,1022,1684,1024,300.8,-4.5,63,3.80933,3.80933,3.80933,0,0,0,6,GPS_Atti,
-34.0125223146698,19.2021932162168,1095.5613053992,43.635172,16.0164904,74.73589478,26000,2017-05-22 12:59:23,18,11.428,1095.5613053992,43.635172,16.0164904,74.73589478,300.3,0,0,1562,1012,1684,890,300.6,-4.5,63,3.80933,3.80933,3.80933,0,0,0,6,GPS_Atti,
-34.0125194981228,19.2021855809316,1096.8736413992,44.947508,16.3072926,77.19324394,26100,2017-05-22 12:59:23,18,11.428,1096.8736413992,44.947508,16.3072926,77.19324394,300.1,0,0,1562,1012,1684,924,300.3,-4.5,63,3.80933,3.80933,3.80933,0,0,0,6,GPS_Atti,
-34.0125194981228,19.2021855809316,1096.8736413992,44.947508,16.3072926,77.19324394,26100,2017-05-22 12:59:23,18,11.428,1096.8736413992,44.947508,16.3072926,77.19324394,300.1,0,0,1563,1012,1684,947,300.1,-4.5,63,3.80933,3.80933,3.80933,0,0,0,6,GPS_Atti,
