latitude,longitude,altitude(feet),ascent(feet),speed(mph),distance(feet),time(millisecond),datetime(utc),satellites,voltage(v),max_altitude(feet),max_ascent(feet),max_speed(mph),max_distance(feet),compass_heading(degrees),isPhoto,isVideo,rc_elevator,rc_aileron,rc_throttle,rc_rudder,gimbal_heading(degrees),gimbal_pitch(degrees),battery_percent,voltageCell1,voltageCell2,voltageCell3,voltageCell4,voltageCell5,voltageCell6,flycStateRaw,flycState,message
-34.207224599733,18.8330316909493,368.79745930808,0,0,0,0,2017-05-24 07:57:22,13,0,368.79745930808,0,0,0,221.2,0,1,1024,1024,1024,1024,221.3,0,96,4.259,4.258,4.259,4.255,0,0,6,GPS_Atti,
-34.2072244021015,18.8330317892803,368.79745930808,0,0,0.077971459188,200,2017-05-24 07:57:22,13,0,368.79745930808,0,0,0.077971459188,221.2,0,0,1024,1024,1024,1024,221.3,0,96,4.259,4.258,4.259,4.255,0,0,6,GPS_Atti,
-34.2072243986146,18.8330317924842,368.79745930808,0,0,0.079516734828,400,2017-05-24 07:57:22,13,0,368.79745930808,0,0,0.079516734828,221.2,0,0,1024,1024,1024,1024,221.3,0,96,4.259,4.258,4.259,4.255,0,0,6,GPS_Atti,
-34.2072243902657,18.8330317947826,368.79745930808,0,0,0.082596459336,600,2017-05-24 07:57:23,13,0,368.79745930808,0,0,0.082596459336,221.3,0,0,1024,1024,1024,1024,221.3,0,96,4.259,4.258,4.259,4.255,0,0,6,GPS_Atti,
-34.2072243960327,18.8330318898893,368.79745930808,0,0,0.095533795708,800,2017-05-24 07:57:23,13,0,368.79745930808,0,0,0.095533795708,221.2,0,0,1024,1024,1024,1024,221.3,0,96,4.259,4.258,4.259,4.255,0,0,6,GPS_Atti,
-34.2072242999861,18.8330318877629,368.79745930808,0,0,0.124445870124,1000,2017-05-24 07:57:23,13,0,368.79745930808,0,0,0.124445870124,221.3,0,0,1024,1024,1024,1024,221.3,0,96,4.259,4.258,4.259,4.255,0,0,6,GPS_Atti,
-34.207224302057,18.8330318868693,368.79745930808,0,0,0.12365321918,1100,2017-05-24 07:57:23,13,0,368.79745930808,0,0,0.124445870124,221.3,0,0,1024,1024,1024,1024,0,0,96,4.259,4.258,4.259,4.255,0,0,6,GPS_Atti,
-34.2072243030723,18.8330318870493,368.79745930808,0,0,0.123354006572,1200,2017-05-24 07:57:23,13,0,368.79745930808,0,0,0.124445870124,221.3,0,0,1024,1024,1024,1024,221.3,0,96,4.259,4.258,4.259,4.255,0,0,6,GPS_Atti,
-34.2072243039968,18.8330318850229,368.79745930808,0,0,0.122765423876,1300,2017-05-24 07:57:23,13,0,368.79745930808,0,0,0.124445870124,221.3,0,0,1024,1024,1024,1024,221.3,0,96,4.259,4.258,4.259,4.255,0,0,6,GPS_Atti,
-34.2072242042977,18.8330319816812,368.79745930808,0,0,0.168850727188,1400,2017-05-24 07:57:23,13,17.017,368.79745930808,0,0,0.168850727188,221.3,0,0,1024,1024,1024,1024,221.3,0,96,4.259,4.258,4.259,4.255,0,0,6,GPS_Atti,
-34.2072240974343,18.8330319838462,368.46937530808,-0.328084,0,0.203459980264,1700,2017-05-24 07:57:24,13,17.017,368.79745930808,0,0,0.203459980264,221.3,0,0,1024,1024,1024,1024,221.3,0,96,4.259,4.258,4.259,4.255,0,0,6,GPS_Atti,
-34.207224092873,18.8330319852555,368.14129130808,-0.656168,0,0.205144035436,1800,2017-05-24 07:57:24,13,17.017,368.79745930808,0,0,0.205144035436,221.3,0,0,1024,1024,1024,1024,221.3,0,96,4.259,4.258,4.259,4.255,0,0,6,GPS_Atti,
-34.2072240927101,18.8330319853206,367.81320730808,-0.984252,0,0.205206043312,1900,2017-05-24 07:57:24,13,17.017,368.79745930808,0,0,0.205206043312,221.3,0,0,1024,1024,1024,1024,0,0,96,4.259,4.258,4.259,4.255,0,0,6,GPS_Atti,
-34.2072239993023,18.8330319794586,367.81320730808,-0.984252,0,0.235729666336,2000,2017-05-24 07:57:24,13,17.017,368.79745930808,0,0,0.235729666336,221.3,0,0,1024,1024,1024,1024,221.3,0,96,4.259,4.258,4.259,4.255,0,0,11,AutoTakeoff,Taking off
-34.2072238955881,18.8330319855927,367.15703930808,-1.64042,0,0.271854667492,2200,2017-05-24 07:57:24,13,17.017,368.79745930808,0,0,0.271854667492,221.4,0,0,1024,1024,1024,1024,221.3,0,96,4.259,4.258,4.259,4.255,0,0,11,AutoTakeoff,
-34.2072239879982,18.8330319884342,366.82895530808,-1.968504,0,0.240564640244,2400,2017-05-24 07:57:24,13,17.017,368.79745930808,0,0,0.271854667492,221.4,0,0,1024,1024,1024,1024,221.3,0,96,4.259,4.258,4.259,4.255,0,0,11,AutoTakeoff,
-34.2072239919313,18.8330319859212,366.50087130808,-2.296588,0,0.238950466964,2500,2017-05-24 07:57:24,13,17.017,368.79745930808,0,0,0.271854667492,221.4,0,0,1024,1024,1024,1024,221.3,0,96,4.259,4.258,4.259,4.255,0,0,11,AutoTakeoff,
-34.2072238976791,18.833031980378,366.17278730808,-2.624672,0,0.270622055904,2600,2017-05-24 07:57:25,13,17.017,368.79745930808,0,0,0.271854667492,221.4,0,0,1024,1024,1024,1024,221.3,0,96,4.259,4.258,4.259,4.255,0,0,11,AutoTakeoff,
-34.207223902347,18.8330319724649,365.51661930808,-3.28084,0,0.268245087324,2700,2017-05-24 07:57:25,13,17.017,368.79745930808,0,0,0.271854667492,221.4,0,0,1024,1024,1024,1024,221.3,0,96,4.259,4.258,4.259,4.255,0,0,11,AutoTakeoff,
-34.2072239042236,18.8330319624961,364.86045130808,-3.937008,0,0.266656176512,2800,2017-05-24 07:57:25,13,16.936,368.79745930808,0,0,0.271854667492,221.4,0,0,1024,1024,1024,1024,221.3,0,96,4.255,4.253,4.248,4.241,0,0,11,AutoTakeoff,
-34.2072239255097,18.8330319443716,364.20428330808,-4.593176,0,0.257600730028,2900,2017-05-24 07:57:25,13,16.936,368.79745930808,0,0,0.271854667492,221.2,0,0,1024,1024,1024,1024,221.3,0,96,4.255,4.253,4.248,4.241,0,0,11,AutoTakeoff,
-34.2072239656937,18.8330318305892,363.54811530808,-5.249344,0,0.235134850044,3000,2017-05-24 07:57:25,13,16.936,368.79745930808,0,0,0.271854667492,221.1,0,0,1024,1024,1024,1024,221.3,0,96,4.255,4.253,4.248,4.241,0,0,11,AutoTakeoff,
-34.2072240153241,18.8330317793121,363.22003130808,-5.577428,0.223694,0.214881568556,3100,2017-05-24 07:57:25,13,16.936,368.79745930808,0,0.223694,0.271854667492,221.3,0,0,1024,1024,1024,1024,221.3,0,96,4.255,4.253,4.248,4.241,0,0,11,AutoTakeoff,
-34.2072240658243,18.8330317082931,363.22003130808,-5.577428,0.3131716,0.194866476052,3200,2017-05-24 07:57:25,13,16.936,368.79745930808,0,0.3131716,0.271854667492,221.5,0,0,1024,1024,1024,1024,221.3,0,96,4.255,4.253,4.248,4.241,0,0,11,AutoTakeoff,
-34.2072241736164,18.8330315702624,363.54811530808,-5.249344,0.3131716,0.159676186212,3300,2017-05-24 07:57:25,13,16.936,368.79745930808,0,0.3131716,0.271854667492,221.8,0,0,1024,1024,1024,1024,221.3,0,96,4.255,4.253,4.248,4.241,0,0,11,AutoTakeoff,
-34.2072242832069,18.8330313383729,363.87619930808,-4.92126,0.3131716,0.157016737308,3400,2017-05-24 07:57:25,13,16.936,368.79745930808,0,0.3131716,0.271854667492,222,0,0,1024,1024,1024,1024,221.3,0,96,4.255,4.253,4.248,4.241,0,0,11,AutoTakeoff,
-34.2072244206168,18.8330311759197,363.87619930808,-4.92126,0.3131716,0.168583666812,3500,2017-05-24 07:57:26,13,16.936,368.79745930808,0,0.3131716,0.271854667492,222.1,0,0,1024,1024,1024,1024,221.3,0,96,4.255,4.253,4.248,4.241,0,0,11,AutoTakeoff,
-34.207224521833,18.8330308870898,363.87619930808,-4.92126,0.3131716,0.244211293904,3600,2017-05-24 07:57:26,13,16.936,368.79745930808,0,0.3131716,0.271854667492,222.2,0,0,1024,1024,1024,1024,221.4,0,96,4.255,4.253,4.248,4.241,0,0,11,AutoTakeoff,
-34.2072246326622,18.8330307279905,363.87619930808,-4.92126,0.3131716,0.290805783584,3700,2017-05-24 07:57:26,13,16.936,368.79745930808,0,0.3131716,0.290805783584,222.1,0,0,1024,1024,1024,1024,221.4,0,96,4.255,4.253,4.248,4.241,0,0,11,AutoTakeoff,
-34.2072247015808,18.8330305275021,363.22003130808,-5.577428,0.223694,0.35301182232,3800,2017-05-24 07:57:26,13,16.829,368.79745930808,0,0.3131716,0.35301182232,221.9,0,0,1024,1024,1024,1024,221.4,0,96,4.255,4.253,4.248,4.241,0,0,11,AutoTakeoff,
-34.2072247704749,18.833030417799,362.89194730808,-5.905512,0,0.38916995996,3900,2017-05-24 07:57:26,13,16.829,368.79745930808,0,0.3131716,0.38916995996,221.8,0,0,1024,1024,1024,1024,0,0,96,4.255,4.253,4.248,4.241,0,0,11,AutoTakeoff,
-34.2072248134761,18.8330304215164,362.89194730808,-5.905512,0,0.39088912012,4000,2017-05-24 07:57:26,13,16.829,368.79745930808,0,0.3131716,0.39088912012,221.7,0,0,1024,1024,1024,1024,221.4,0,96,4.255,4.253,4.248,4.241,0,0,11,AutoTakeoff,
-34.2072248986206,18.8330303146867,363.87619930808,-4.92126,0,0.42934384576,4200,2017-05-24 07:57:26,12,16.829,368.79745930808,0,0.3131716,0.42934384576,221.6,0,0,1024,1024,1024,1024,221.4,0,96,4.255,4.253,4.248,4.241,0,0,11,AutoTakeoff,
-34.2072248779676,18.8330303264069,364.20428330808,-4.593176,0,0.42405841252,4300,2017-05-24 07:57:26,12,16.829,368.79745930808,0,0.3131716,0.42934384576,221.6,0,0,1024,1024,1024,1024,221.4,0,96,4.255,4.253,4.248,4.241,0,0,11,AutoTakeoff,
-34.2072250409624,18.8330300915625,364.86045130808,-3.937008,0,0.50873033124,4400,2017-05-24 07:57:26,14,16.829,368.79745930808,0,0.3131716,0.50873033124,221.5,0,0,1024,1024,1024,1024,221.4,0,96,4.255,4.253,4.248,4.241,0,0,11,AutoTakeoff,
-34.2072250266894,18.8330301066982,365.51661930808,-3.28084,0,0.50276248328,4500,2017-05-24 07:57:27,14,16.829,368.79745930808,0,0.3131716,0.50873033124,221.4,0,0,1024,1024,1024,1024,221.4,0,96,4.255,4.253,4.248,4.241,0,0,11,AutoTakeoff,
-34.2072252019929,18.8330299260064,365.84470330808,-2.952756,0,0.57609581896,4600,2017-05-24 07:57:27,14,16.829,368.79745930808,0,0.3131716,0.57609581896,221.2,0,0,1024,1024,1024,1024,221.4,0,96,4.255,4.253,4.248,4.241,0,0,11,AutoTakeoff,
-34.2072255515339,18.8330296610102,366.82895530808,-1.968504,0,0.70409451072,4800,2017-05-24 07:57:27,14,16.829,368.79745930808,0,0.3131716,0.70409451072,221.2,0,0,1024,1024,1024,1024,221.4,0,96,4.255,4.253,4.248,4.241,0,0,11,AutoTakeoff,
-34.2072255474277,18.8330296600781,367.15703930808,-1.64042,0,0.70360238472,4900,2017-05-24 07:57:27,14,16.829,368.79745930808,0,0.3131716,0.70409451072,221.3,0,0,1024,1024,1024,1024,0,0,96,4.255,4.253,4.248,4.241,0,0,11,AutoTakeoff,
-34.2072258364232,18.8330293770889,367.48512330808,-1.312336,0,0.831282835,5000,2017-05-24 07:57:27,14,16.373,368.79745930808,0,0.3131716,0.831282835,221.4,0,0,1024,1024,1024,1024,221.4,0,96,4.159,4.152,4.151,4.152,0,0,11,AutoTakeoff,
-34.2072258564174,18.8330293929576,367.48512330808,-1.312336,0,0.8312664308,5100,2017-05-24 07:57:27,14,16.373,368.79745930808,0,0.3131716,0.831282835,221.3,0,0,1024,1024,1024,1024,221.4,0,96,4.159,4.152,4.151,4.152,0,0,11,AutoTakeoff,
-34.207226159929,18.8330291288022,367.48512330808,-1.312336,0,0.96004924332,5200,2017-05-24 07:57:27,14,16.373,368.79745930808,0,0.3131716,0.96004924332,221,0,0,1024,1024,1024,1024,221.4,0,96,4.159,4.152,4.151,4.152,0,0,11,AutoTakeoff,
-34.2072261791051,18.833029164947,367.48512330808,-1.312336,0,0.95549215656,5300,2017-05-24 07:57:27,14,16.373,368.79745930808,0,0.3131716,0.96004924332,220.9,0,0,1024,1024,1024,1024,0,0,96,4.159,4.152,4.151,4.152,0,0,11,AutoTakeoff,
-34.2072264762974,18.8330289932639,367.48512330808,-1.312336,0,1.06364176632,5400,2017-05-24 07:57:27,14,16.373,368.79745930808,0,0.3131716,1.06364176632,220.8,0,0,1024,1024,1024,1024,221.4,0,96,4.159,4.152,4.151,4.152,0,0,11,AutoTakeoff,
-34.2072264818986,18.833029006875,367.48512330808,-1.312336,0,1.06182090012,5500,2017-05-24 07:57:28,14,16.373,368.79745930808,0,0.3131716,1.06364176632,220.4,0,0,1024,1024,1024,1024,221.4,0,96,4.159,4.152,4.151,4.152,0,0,11,AutoTakeoff,
-34.207226777889,18.8330290473061,367.81320730808,-0.984252,0,1.12598100716,5700,2017-05-24 07:57:28,14,16.373,368.79745930808,0,0.3131716,1.12598100716,220,0,0,1024,1024,1024,1024,221.3,0,96,4.159,4.152,4.151,4.152,0,0,11,AutoTakeoff,
-34.207226860907,18.833029234332,368.14129130808,-0.656168,0.223694,1.10907483864,5800,2017-05-24 07:57:28,14,16.373,368.79745930808,0,0.3131716,1.12598100716,220.3,0,0,1024,1024,1024,1024,221.3,0,96,4.159,4.152,4.151,4.152,0,0,11,AutoTakeoff,
-34.2072268303636,18.8330293602457,368.46937530808,-0.328084,0.223694,1.07559714728,5900,2017-05-24 07:57:28,14,16.373,368.79745930808,0,0.3131716,1.12598100716,220.7,0,0,1024,1024,1024,1024,221.3,0,96,4.159,4.152,4.151,4.152,0,0,11,AutoTakeoff,
-34.207227019113,18.83302930865,368.79745930808,0,0.223694,1.13836617816,6000,2017-05-24 07:57:28,14,16.373,368.79745930808,0,0.3131716,1.13836617816,221.1,0,0,1024,1024,1024,1024,221.3,0,96,4.159,4.152,4.151,4.152,0,0,11,AutoTakeoff,
-34.2072272647387,18.8330292552304,368.79745930808,0,0,1.21883206,6200,2017-05-24 07:57:28,14,16.507,368.79745930808,0,0.3131716,1.21883206,221.5,0,0,1024,1024,1024,1024,221.3,0,96,4.157,4.152,4.149,4.147,0,0,11,AutoTakeoff,
-34.207227208198,18.8330293150816,369.12554330808,0.328084,0,1.19148953944,6300,2017-05-24 07:57:28,14,16.507,369.12554330808,0.328084,0.3131716,1.21883206,221.6,0,0,1024,1024,1024,1024,221.3,0,96,4.157,4.152,4.149,4.147,0,0,11,AutoTakeoff,
-34.2072274784207,18.8330290154153,369.12554330808,0.328084,0,1.32470148596,6400,2017-05-24 07:57:28,14,16.507,369.12554330808,0.328084,0.3131716,1.32470148596,221.6,0,0,1024,1024,1024,1024,221.3,0,96,4.157,4.152,4.149,4.147,0,0,11,AutoTakeoff,
-34.2072274927383,18.8330289824361,369.45362730808,0.656168,0,1.33491802172,6500,2017-05-24 07:57:29,14,16.507,369.45362730808,0.656168,0.3131716,1.33491802172,221.6,0,0,1024,1024,1024,1024,221.3,0,96,4.157,4.152,4.149,4.147,0,0,11,AutoTakeoff,
-34.2072275466993,18.8330288963243,369.78171130808,0.984252,0,1.36641736656,6700,2017-05-24 07:57:29,13,16.507,369.78171130808,0.984252,0.3131716,1.36641736656,221.6,0,0,1024,1024,1024,1024,221.3,0,96,4.157,4.152,4.149,4.147,0,0,11,AutoTakeoff,
-34.2072274677034,18.8330288570201,369.78171130808,0.984252,0,1.3513287834,6800,2017-05-24 07:57:29,13,16.507,369.78171130808,0.984252,0.3131716,1.36641736656,221.7,0,0,1024,1024,1024,1024,221.3,0,96,4.157,4.152,4.149,4.147,0,0,11,AutoTakeoff,
-34.2072274782521,18.8330288177706,370.10979530808,1.312336,0,1.36182090972,6900,2017-05-24 07:57:29,13,16.507,370.10979530808,1.312336,0.3131716,1.36641736656,221.8,0,0,1024,1024,1024,1024,221.3,0,96,4.157,4.152,4.149,4.147,0,0,11,AutoTakeoff,
-34.2072274842231,18.8330287795097,370.43787930808,1.64042,0,1.37086946644,7000,2017-05-24 07:57:29,13,16.507,370.43787930808,1.64042,0.3131716,1.37086946644,221.7,0,0,1024,1024,1024,1024,221.3,0,96,4.157,4.152,4.149,4.147,0,0,11,AutoTakeoff,
-34.2072274962315,18.8330287462449,370.43787930808,1.64042,0,1.38067261636,7100,2017-05-24 07:57:29,13,16.507,370.43787930808,1.64042,0.3131716,1.38067261636,221.6,0,0,1024,1024,1024,1024,221.3,0,96,4.157,4.152,4.149,4.147,0,0,11,AutoTakeoff,
-34.2072274948281,18.8330285172434,370.76596330808,1.968504,0.223694,1.42574151544,7200,2017-05-24 07:57:29,13,16.507,370.76596330808,1.968504,0.3131716,1.42574151544,221.3,0,0,1024,1024,1024,1024,221.3,0,96,4.157,4.152,4.149,4.147,0,0,11,AutoTakeoff,
-34.2072275025171,18.8330285063606,370.76596330808,1.968504,0.223694,1.43002629248,7300,2017-05-24 07:57:29,13,16.56,370.76596330808,1.968504,0.3131716,1.43002629248,221.1,0,0,1024,1024,1024,1024,221.3,0,96,4.157,4.152,4.149,4.147,0,0,11,AutoTakeoff,
-34.2072276010134,18.833028188389,371.09404730808,2.296588,0.223694,1.52183075736,7400,2017-05-24 07:57:29,13,16.56,371.09404730808,2.296588,0.3131716,1.52183075736,220.9,0,0,1024,1024,1024,1024,221.3,0,96,4.157,4.152,4.149,4.147,0,0,11,AutoTakeoff,
-34.2072275875801,18.833028138209,371.09404730808,2.296588,0.223694,1.5288878442,7500,2017-05-24 07:57:30,13,16.56,371.09404730808,2.296588,0.3131716,1.5288878442,220.9,0,0,1024,1024,1024,1024,221.3,0,96,4.157,4.152,4.149,4.147,0,0,11,AutoTakeoff,
-34.2072276523555,18.8330276758848,371.42213130808,2.624672,0.223694,1.6456365356,7600,2017-05-24 07:57:30,13,16.56,371.42213130808,2.624672,0.3131716,1.6456365356,221,0,0,1024,1024,1024,1024,221.3,0,96,4.157,4.152,4.149,4.147,0,0,11,AutoTakeoff,
-34.2072276148517,18.8330275393013,371.42213130808,2.624672,0.223694,1.66714900348,7700,2017-05-24 07:57:30,13,16.56,371.42213130808,2.624672,0.3131716,1.66714900348,221.2,0,0,1024,1024,1024,1024,221.3,0,96,4.157,4.152,4.149,4.147,0,0,11,AutoTakeoff,
-34.2072277349438,18.8330273320064,371.42213130808,2.624672,0.223694,1.7430774836,7800,2017-05-24 07:57:30,13,16.56,371.42213130808,2.624672,0.3131716,1.7430774836,221.4,0,0,1024,1024,1024,1024,221.3,0,96,4.157,4.152,4.149,4.147,0,0,11,AutoTakeoff,
-34.2072277089712,18.8330271962963,371.75021530808,2.952756,0.223694,1.76808404608,7900,2017-05-24 07:57:30,13,16.56,371.75021530808,2.952756,0.3131716,1.76808404608,221.6,0,0,1024,1024,1024,1024,221.3,0,96,4.157,4.152,4.149,4.147,0,0,6,GPS_Atti,
-34.207227956906,18.8330268305139,371.75021530808,2.952756,0.223694,1.91078090104,8000,2017-05-24 07:57:30,13,16.56,371.75021530808,2.952756,0.3131716,1.91078090104,221.8,0,0,1024,1024,1024,1024,221.3,0,96,4.157,4.152,4.149,4.147,0,0,6,GPS_Atti,
-34.2072279463383,18.833026691158,372.07829930808,3.28084,0.223694,1.9408137104,8100,2017-05-24 07:57:30,13,16.56,372.07829930808,3.28084,0.3131716,1.9408137104,221.9,0,0,1024,1024,1024,1024,221.3,0,96,4.157,4.152,4.149,4.147,0,0,6,GPS_Atti,
-34.2072280868981,18.8330263454894,372.07829930808,3.28084,0.223694,2.05431108936,8200,2017-05-24 07:57:30,14,16.56,372.07829930808,3.28084,0.3131716,2.05431108936,221.9,0,0,1024,1024,1024,1024,221.4,0,96,4.157,4.152,4.149,4.147,0,0,6,GPS_Atti,
-34.2072280771329,18.8330262248005,372.07829930808,3.28084,0.223694,2.08084980412,8300,2017-05-24 07:57:30,14,16.56,372.07829930808,3.28084,0.3131716,2.08084980412,221.9,0,0,1024,1024,1024,1024,221.4,0,96,4.159,4.153,4.153,4.147,0,0,6,GPS_Atti,
-34.207228297134,18.8330259786995,372.07829930808,3.28084,0,2.18872382332,8400,2017-05-24 07:57:30,14,16.56,372.07829930808,3.28084,0.3131716,2.18872382332,221.7,0,0,1024,1024,1024,1024,221.3,0,96,4.159,4.153,4.153,4.147,0,0,6,GPS_Atti,
-34.207228306827,18.8330259002024,372.07829930808,3.28084,0,2.20958668488,8500,2017-05-24 07:57:31,14,16.56,372.07829930808,3.28084,0.3131716,2.20958668488,221.3,0,0,1024,1024,1024,1024,221.4,0,96,4.159,4.153,4.153,4.147,0,0,6,GPS_Atti,
-34.2072285346676,18.8330257613127,372.07829930808,3.28084,0,2.29396004716,8600,2017-05-24 07:57:31,14,16.56,372.07829930808,3.28084,0.3131716,2.29396004716,220.9,0,0,1024,1024,1024,1024,221.4,0,96,4.159,4.153,4.153,4.147,0,0,6,GPS_Atti,
-34.2072285690068,18.833025818303,371.75021530808,2.952756,0,2.28848104436,8700,2017-05-24 07:57:31,14,16.56,372.07829930808,3.28084,0.3131716,2.29396004716,220.7,0,0,1024,1024,1024,1024,221.4,0,96,4.159,4.153,4.153,4.147,0,0,6,GPS_Atti,
-34.2072288915935,18.8330255694977,371.75021530808,2.952756,0,2.42148301712,8800,2017-05-24 07:57:31,14,16.56,372.07829930808,3.28084,0.3131716,2.42148301712,220.9,0,0,1024,1024,1024,1024,221.4,0,96,4.159,4.153,4.153,4.147,0,0,6,GPS_Atti,
-34.2072289123288,18.8330256203056,371.42213130808,2.624672,0.223694,2.41473432924,8900,2017-05-24 07:57:31,14,16.56,372.07829930808,3.28084,0.3131716,2.42148301712,221.1,0,0,1024,1024,1024,1024,221.4,0,96,4.159,4.153,4.153,4.147,0,0,6,GPS_Atti,
-34.2072292702292,18.8330255619522,371.09404730808,2.296588,0.223694,2.51470152404,9000,2017-05-24 07:57:31,14,16.56,372.07829930808,3.28084,0.3131716,2.51470152404,221.3,0,0,1024,1024,1024,1024,221.4,0,96,4.159,4.153,4.153,4.147,0,0,6,GPS_Atti,
-34.2072294025226,18.833025659892,371.09404730808,2.296588,0.223694,2.52628617008,9100,2017-05-24 07:57:31,14,16.56,372.07829930808,3.28084,0.3131716,2.52628617008,221.3,0,0,1024,1024,1024,1024,221.4,0,96,4.159,4.153,4.153,4.147,0,0,6,GPS_Atti,
-34.2072297214945,18.8330257186492,370.76596330808,1.968504,0.3131716,2.59601714344,9200,2017-05-24 07:57:31,14,16.56,372.07829930808,3.28084,0.3131716,2.59601714344,221.3,0,0,1024,1024,1024,1024,221.4,0,96,4.159,4.153,4.153,4.147,0,0,6,GPS_Atti,
-34.2072298458871,18.8330258478029,370.76596330808,1.968504,0.3131716,2.60231635624,9300,2017-05-24 07:57:31,14,16.534,372.07829930808,3.28084,0.3131716,2.60231635624,221.2,0,0,1024,1024,1024,1024,221.4,0,96,4.162,4.162,4.156,4.15,0,0,6,GPS_Atti,
-34.2072301128197,18.833025895056,370.76596330808,1.968504,0.3131716,2.6653872244,9400,2017-05-24 07:57:31,14,16.534,372.07829930808,3.28084,0.3131716,2.6653872244,221.2,0,0,1024,1024,1024,1024,221.4,0,96,4.162,4.162,4.156,4.15,0,0,6,GPS_Atti,
-34.2072301945063,18.8330260386001,370.76596330808,1.968504,0.223694,2.65997055756,9500,2017-05-24 07:57:32,14,16.534,372.07829930808,3.28084,0.3131716,2.6653872244,221.3,0,0,1024,1024,1024,1024,221.4,0,96,4.162,4.162,4.156,4.15,0,0,6,GPS_Atti,
-34.2072305427583,18.833026023201,370.76596330808,1.968504,0.223694,2.76155520648,9600,2017-05-24 07:57:32,13,16.534,372.07829930808,3.28084,0.3131716,2.76155520648,221.4,0,0,1024,1024,1024,1024,221.4,0,96,4.162,4.162,4.156,4.15,0,0,6,GPS_Atti,
-34.2072305975068,18.833026142667,370.76596330808,1.968504,0,2.7552166236,9700,2017-05-24 07:57:32,13,16.534,372.07829930808,3.28084,0.3131716,2.76155520648,221.4,0,0,1024,1024,1024,1024,221.4,0,96,4.162,4.162,4.156,4.15,0,0,6,GPS_Atti,
-34.2072306702609,18.8330262570764,370.76596330808,1.968504,0,2.75566609868,9900,2017-05-24 07:57:32,14,16.534,372.07829930808,3.28084,0.3131716,2.76155520648,221.3,0,0,1024,1024,1024,1024,0,0,96,4.162,4.162,4.156,4.15,0,0,6,GPS_Atti,
-34.2072308475484,18.8330261295657,370.76596330808,1.968504,0,2.83055783336,10000,2017-05-24 07:57:32,14,16.534,372.07829930808,3.28084,0.3131716,2.83055783336,221.3,0,0,1024,1024,1024,1024,221.4,0,96,4.162,4.162,4.156,4.15,0,0,6,GPS_Atti,
-34.2072308380491,18.833026098066,370.76596330808,1.968504,0,2.83341872584,10100,2017-05-24 07:57:32,14,16.534,372.07829930808,3.28084,0.3131716,2.83341872584,221.4,0,0,1024,1024,1024,1024,221.4,0,96,4.162,4.162,4.156,4.15,0,0,6,GPS_Atti,
-34.2072310237088,18.8330261562656,371.09404730808,2.296588,0,2.8778872312,10200,2017-05-24 07:57:32,14,16.534,372.07829930808,3.28084,0.3131716,2.8778872312,221.4,0,0,1024,1024,1024,1024,221.4,0,96,4.162,4.162,4.156,4.15,0,0,6,GPS_Atti,
-34.2072310319533,18.8330261398763,371.09404730808,2.296588,0,2.88320547284,10300,2017-05-24 07:57:32,14,16.534,372.07829930808,3.28084,0.3131716,2.88320547284,221.4,0,0,1024,1024,1024,1024,221.4,0,96,4.162,4.162,4.156,4.15,0,0,6,GPS_Atti,
-34.2072313296224,18.8330261422188,371.09404730808,2.296588,0,2.97187673552,10400,2017-05-24 07:57:32,14,16.48,372.07829930808,3.28084,0.3131716,2.97187673552,221.3,0,0,1024,1024,1024,1024,221.4,0,96,4.154,4.148,4.144,4.14,0,0,6,GPS_Atti,
-34.2072313313467,18.8330261349839,371.09404730808,2.296588,0,2.97362542324,10500,2017-05-24 07:57:33,14,16.48,372.07829930808,3.28084,0.3131716,2.97362542324,221.3,0,0,1024,1024,1024,1024,221.4,0,96,4.154,4.148,4.144,4.14,0,0,6,GPS_Atti,
-34.2072315233899,18.8330260230218,371.09404730808,2.296588,0,3.05056440208,10600,2017-05-24 07:57:33,14,16.48,372.07829930808,3.28084,0.3131716,3.05056440208,221.2,0,0,1024,1024,1024,1024,221.4,0,96,4.154,4.148,4.144,4.14,0,0,6,GPS_Atti,
-34.2072315251065,18.8330260077988,371.09404730808,2.296588,0,3.05366151504,10700,2017-05-24 07:57:33,14,16.48,372.07829930808,3.28084,0.3131716,3.05366151504,221,0,0,1024,1024,1024,1024,221.4,0,96,4.154,4.148,4.144,4.14,0,0,6,GPS_Atti,
-34.2072318170515,18.8330260076146,371.09404730808,2.296588,0,3.14239511368,10800,2017-05-24 07:57:33,14,16.48,372.07829930808,3.28084,0.3131716,3.14239511368,220.7,0,0,1024,1024,1024,1024,221.4,0,96,4.154,4.148,4.144,4.14,0,0,6,GPS_Atti,
-34.2072318136956,18.8330260265227,371.09404730808,2.296588,0,3.13825797444,10900,2017-05-24 07:57:33,14,16.48,372.07829930808,3.28084,0.3131716,3.14239511368,220.5,0,0,1024,1024,1024,1024,221.3,0,96,4.154,4.148,4.144,4.14,0,0,6,GPS_Atti,
-34.207231916834,18.8330260345444,371.09404730808,2.296588,0,3.16857949772,11000,2017-05-24 07:57:33,14,16.48,372.07829930808,3.28084,0.3131716,3.16857949772,220.3,0,0,1024,1024,1038,1024,221.3,0,96,4.154,4.148,4.144,4.14,0,0,6,GPS_Atti,
-34.2072319122784,18.8330260397166,371.09404730808,2.296588,0,3.166338684,11100,2017-05-24 07:57:33,14,16.48,372.07829930808,3.28084,0.3131716,3.16857949772,220.3,0,0,1024,1024,1043,1024,221.3,0,96,4.154,4.148,4.144,4.14,0,0,6,GPS_Atti,
-34.2072321013445,18.8330260474931,371.09404730808,2.296588,0,3.22343842336,11200,2017-05-24 07:57:33,14,16.48,372.07829930808,3.28084,0.3131716,3.22343842336,220.4,0,0,1024,1024,1048,1024,221.3,0,96,4.154,4.148,4.144,4.14,0,0,6,GPS_Atti,
-34.2072320990249,18.8330260414886,371.09404730808,2.296588,0,3.22367464384,11300,2017-05-24 07:57:33,14,16.48,372.07829930808,3.28084,0.3131716,3.22367464384,220.6,0,0,1024,1024,1040,1024,221.3,0,96,4.154,4.148,4.144,4.14,0,0,6,GPS_Atti,
-34.2072322082329,18.8330260401792,371.09404730808,2.296588,0,3.25776913312,11400,2017-05-24 07:57:33,14,16.56,372.07829930808,3.28084,0.3131716,3.25776913312,220.8,0,0,1024,1024,1038,1024,0,0,96,4.154,4.148,4.144,4.14,0,0,6,GPS_Atti,
-34.2072322176263,18.8330260334431,371.09404730808,2.296588,0,3.26175207288,11500,2017-05-24 07:57:34,14,16.56,372.07829930808,3.28084,0.3131716,3.26175207288,221,0,0,1024,1024,1033,1024,221.3,0,96,4.154,4.148,4.144,4.14,0,0,6,GPS_Atti,
-34.2072324247377,18.8330259449733,371.09404730808,2.296588,0,3.3401575872,11600,2017-05-24 07:57:34,14,16.56,372.07829930808,3.28084,0.3131716,3.3401575872,221.1,0,0,1024,1024,1028,1024,221.3,0,96,4.154,4.148,4.144,4.14,0,0,6,GPS_Atti,
-34.2072324369657,18.8330259502821,371.09404730808,2.296588,0,3.3431431516,11700,2017-05-24 07:57:34,14,16.56,372.07829930808,3.28084,0.3131716,3.3431431516,221.1,0,0,1024,1024,1030,1024,0,0,96,4.154,4.148,4.144,4.14,0,0,6,GPS_Atti,
-34.207232745962,18.8330259634506,371.09404730808,2.296588,0,3.4380578528,11800,2017-05-24 07:57:34,13,16.56,372.07829930808,3.28084,0.3131716,3.4380578528,221.2,0,0,1024,1024,1035,1024,221.3,0,96,4.154,4.148,4.144,4.14,0,0,6,GPS_Atti,
-34.2072327453134,18.833025967524,371.09404730808,2.296588,0,3.4372376428,11900,2017-05-24 07:57:34,13,16.56,372.07829930808,3.28084,0.3131716,3.4380578528,221.4,0,0,1024,1024,1042,1024,221.3,0,96,4.154,4.148,4.144,4.14,0,0,6,GPS_Atti,
-34.207233034477,18.8330258555313,371.09404730808,2.296588,0,3.5455053628,12000,2017-05-24 07:57:34,13,16.56,372.07829930808,3.28084,0.3131716,3.5455053628,221.6,0,0,1024,1024,1040,1024,0,0,96,4.154,4.148,4.144,4.14,0,0,6,GPS_Atti,
-34.2072330426964,18.8330258346163,371.09404730808,2.296588,0,3.5512468328,12100,2017-05-24 07:57:34,13,16.56,372.07829930808,3.28084,0.3131716,3.5512468328,221.7,0,0,1024,1024,1036,1024,221.3,0,96,4.154,4.148,4.144,4.14,0,0,6,GPS_Atti,
-34.207233349836,18.8330256092226,371.09404730808,2.296588,0,3.6822835824,12300,2017-05-24 07:57:34,13,16.56,372.07829930808,3.28084,0.3131716,3.6822835824,221.7,0,0,1024,1024,1044,1024,221.3,0,96,4.154,4.148,4.144,4.14,0,0,6,GPS_Atti,
-34.2072336296605,18.8330254939327,371.09404730808,2.296588,0,3.7881890976,12500,2017-05-24 07:57:35,13,16.56,372.07829930808,3.28084,0.3131716,3.7881890976,221.6,0,0,1024,1024,1067,1024,221.3,0,96,4.154,4.148,4.144,4.14,0,0,6,GPS_Atti,
-34.2072336296605,18.8330254939327,371.09404730808,2.296588,0,3.7881890976,12500,2017-05-24 07:57:35,13,16.48,372.07829930808,3.28084,0.3131716,3.7881890976,221.6,0,0,1024,1024,1073,1024,221.3,0,96,4.148,4.144,4.141,4.135,0,0,6,GPS_Atti,
-34.2072338281021,18.8330254073564,371.09404730808,2.296588,0,3.8640749268,12600,2017-05-24 07:57:35,13,16.48,372.07829930808,3.28084,0.3131716,3.8640749268,221.5,0,0,1024,1024,1061,1024,221.3,0,96,4.148,4.144,4.141,4.135,0,0,6,GPS_Atti,
-34.2072338359798,18.8330254234131,371.09404730808,2.296588,0,3.8642061604,12700,2017-05-24 07:57:35,13,16.48,372.07829930808,3.28084,0.3131716,3.8642061604,221.5,0,0,1024,1024,1087,1024,221.3,0,96,4.148,4.144,4.141,4.135,0,0,6,GPS_Atti,
-34.2072340331468,18.8330253436124,371.09404730808,2.296588,0,3.9387468452,12800,2017-05-24 07:57:35,13,16.48,372.07829930808,3.28084,0.3131716,3.9387468452,221.4,0,0,1024,1024,1133,1024,221.3,0,96,4.148,4.144,4.141,4.135,0,0,6,GPS_Atti,
-34.2072340353858,18.8330253590241,371.09404730808,2.296588,0,3.9372048504,12900,2017-05-24 07:57:35,13,16.48,372.07829930808,3.28084,0.3131716,3.9387468452,221.2,0,0,1024,1024,1141,1024,221.3,0,96,4.148,4.144,4.141,4.135,0,0,6,GPS_Atti,
-34.2072343235206,18.83302528034,371.09404730808,2.296588,0,4.0407809692,13000,2017-05-24 07:57:35,13,16.48,372.07829930808,3.28084,0.3131716,4.0407809692,221.1,0,0,1024,1024,1156,1024,221.3,0,96,4.148,4.144,4.141,4.135,0,0,6,GPS_Atti,
-34.2072346070385,18.8330251781782,371.42213130808,2.624672,0,4.1463912088,13200,2017-05-24 07:57:35,13,16.48,372.07829930808,3.28084,0.3131716,4.1463912088,221,0,0,1024,1024,1153,1024,221.3,0,96,4.148,4.144,4.141,4.135,0,0,6,GPS_Atti,
-34.2072346146271,18.8330251818061,371.42213130808,2.624672,0,4.1483269044,13300,2017-05-24 07:57:35,13,16.48,372.07829930808,3.28084,0.3131716,4.1483269044,221,0,0,1024,1024,1153,1024,221.3,0,96,4.148,4.144,4.141,4.135,0,0,6,GPS_Atti,
-34.2072348341784,18.8330250859144,371.42213130808,2.624672,0,4.232611684,13400,2017-05-24 07:57:35,13,16.48,372.07829930808,3.28084,0.3131716,4.232611684,221,0,0,1024,1024,1157,1024,0,0,96,4.148,4.144,4.141,4.135,0,0,6,GPS_Atti,
-34.2072348260412,18.833025111155,371.42213130808,2.624672,0,4.2264108964,13500,2017-05-24 07:57:36,13,16.48,372.07829930808,3.28084,0.3131716,4.232611684,221,0,0,1024,1024,1157,1024,221.3,0,96,4.148,4.144,4.141,4.135,0,0,6,GPS_Atti,
-34.2072351280606,18.8330250166648,371.75021530808,2.952756,0,4.3371392464,13600,2017-05-24 07:57:36,14,16.48,372.07829930808,3.28084,0.3131716,4.3371392464,220.9,0,0,1024,1024,1157,1024,221.3,0,96,4.148,4.144,4.141,4.135,0,0,6,GPS_Atti,
-34.2072351150053,18.8330250039557,371.75021530808,2.952756,0,4.3347114248,13700,2017-05-24 07:57:36,14,16.48,372.07829930808,3.28084,0.3131716,4.3371392464,220.8,0,0,1024,1024,1153,1024,221.3,0,96,4.148,4.144,4.141,4.135,0,0,6,GPS_Atti,
-34.2072353141096,18.8330249697451,372.07829930808,3.28084,0,4.403871532,13800,2017-05-24 07:57:36,14,16.48,372.07829930808,3.28084,0.3131716,4.403871532,220.9,0,0,1024,1024,1151,1024,221.3,0,96,4.148,4.144,4.141,4.135,0,0,6,GPS_Atti,
-34.2072353007892,18.8330249402695,372.07829930808,3.28084,0,4.4036746816,13900,2017-05-24 07:57:36,14,16.48,372.07829930808,3.28084,0.3131716,4.403871532,220.9,0,0,1024,1024,1152,1024,221.3,0,96,4.148,4.144,4.141,4.135,0,0,6,GPS_Atti,
-34.2072355889189,18.8330248179783,372.40638330808,3.608924,0,4.5139765224,14000,2017-05-24 07:57:36,14,16.48,372.40638330808,3.608924,0.3131716,4.5139765224,221.1,0,0,1024,1024,1151,1024,221.3,0,96,4.148,4.144,4.141,4.135,0,0,6,GPS_Atti,
-34.2072355865898,18.8330247941281,372.40638330808,3.608924,0,4.5165355776,14100,2017-05-24 07:57:36,14,16.48,372.40638330808,3.608924,0.3131716,4.5165355776,221.3,0,0,1024,1024,1148,1024,221.3,0,96,4.148,4.144,4.141,4.135,0,0,6,GPS_Atti,
-34.2072355935206,18.8330246812555,372.40638330808,3.608924,0,4.5345473892,14200,2017-05-24 07:57:36,14,16.48,372.40638330808,3.608924,0.3131716,4.5345473892,221.6,0,0,1024,1024,1146,1024,221.3,0,96,4.148,4.144,4.141,4.135,0,0,6,GPS_Atti,
-34.2072356085545,18.8330246734725,372.73446730808,3.937008,0,4.540518518,14300,2017-05-24 07:57:36,14,16.48,372.73446730808,3.937008,0.3131716,4.540518518,221.7,0,0,1054,1024,1147,1024,221.3,0,96,4.148,4.144,4.141,4.135,0,0,6,GPS_Atti,
-34.2072358045829,18.8330244893321,372.73446730808,3.937008,0,4.6297245576,14500,2017-05-24 07:57:36,14,16.48,372.73446730808,3.937008,0.3131716,4.6297245576,221.9,0,0,1120,1024,1145,1024,221.3,0,96,4.148,4.144,4.141,4.135,0,0,6,GPS_Atti,
-34.2072358045829,18.8330244893321,372.73446730808,3.937008,0,4.6297245576,14500,2017-05-24 07:57:37,14,16.48,372.73446730808,3.937008,0.3131716,4.6297245576,221.9,0,0,1155,1024,1141,1024,221.3,0,96,4.148,4.144,4.141,4.135,0,0,6,GPS_Atti,
-34.2072360299436,18.8330242914043,373.06255130808,4.265092,0,4.7303807288,14600,2017-05-24 07:57:37,14,16.507,373.06255130808,4.265092,0.3131716,4.7303807288,222,0,0,1178,1024,1125,1024,221.3,0,96,4.145,4.14,4.137,4.134,0,0,6,GPS_Atti,
-34.2072360445199,18.8330242954145,373.06255130808,4.265092,0,4.7344817788,14700,2017-05-24 07:57:37,14,16.507,373.06255130808,4.265092,0.3131716,4.7344817788,222.1,0,0,1198,1024,1121,1024,221.3,0,96,4.145,4.14,4.137,4.134,0,0,6,GPS_Atti,
-34.2072361942908,18.8330241781767,373.39063530808,4.593176,0,4.7993439856,14800,2017-05-24 07:57:37,14,16.507,373.39063530808,4.593176,0.3131716,4.7993439856,222,0,0,1226,1024,1119,1024,221.4,0,96,4.145,4.14,4.137,4.134,0,0,6,GPS_Atti,
-34.2072362511077,18.8330241491286,373.39063530808,4.593176,0.223694,4.8217521228,14900,2017-05-24 07:57:37,14,16.507,373.39063530808,4.593176,0.3131716,4.8217521228,221.9,0,0,1214,1024,1123,1024,221.4,0,96,4.145,4.14,4.137,4.134,0,0,6,GPS_Atti,
-34.2072367204081,18.8330239059135,373.39063530808,4.593176,0.223694,5.00738205,15000,2017-05-24 07:57:37,14,16.507,373.39063530808,4.593176,0.3131716,5.00738205,221.8,0,0,1213,1024,1137,1024,221.4,0,96,4.145,4.14,4.137,4.134,0,0,6,GPS_Atti,
-34.2072373733515,18.8330233040949,373.71871930808,4.92126,0.4921268,5.3031825844,15200,2017-05-24 07:57:37,14,16.507,373.71871930808,4.92126,0.4921268,5.3031825844,221.6,0,0,1219,1024,1141,1024,221.4,0,96,4.145,4.14,4.137,4.134,0,0,6,GPS_Atti,
-34.2072376454999,18.8330230737292,373.71871930808,4.92126,0.8052984,5.4236222208,15300,2017-05-24 07:57:37,14,16.507,373.71871930808,4.92126,0.8052984,5.4236222208,221.5,0,0,1230,1024,1139,1024,221.4,0,96,4.145,4.14,4.137,4.134,0,0,6,GPS_Atti,
-34.2072379995584,18.8330225286921,374.04680330808,5.249344,0.8052984,5.6164371876,15400,2017-05-24 07:57:37,14,16.507,374.04680330808,5.249344,0.8052984,5.6164371876,221.4,0,0,1230,1024,1140,1024,221.4,0,96,4.145,4.14,4.137,4.134,0,0,6,GPS_Atti,
-34.2072383390227,18.8330222192897,374.04680330808,5.249344,0.9395148,5.7702429668,15500,2017-05-24 07:57:37,14,16.507,374.04680330808,5.249344,0.9395148,5.7702429668,221.3,0,0,1227,1024,1136,1024,221.4,0,96,4.145,4.14,4.137,4.134,0,0,6,GPS_Atti,
-34.2072388886237,18.8330215732725,374.04680330808,5.249344,1.11847,6.0413715844,15600,2017-05-24 07:57:38,14,16.507,374.04680330808,5.249344,1.11847,6.0413715844,221.3,0,0,1218,1024,1133,1024,221.4,0,96,4.145,4.14,4.137,4.134,0,0,6,GPS_Atti,
-34.2072392917954,18.8330211674696,374.37488730808,5.577428,1.11847,6.2302823516,15700,2017-05-24 07:57:38,14,16.48,374.37488730808,5.577428,1.11847,6.2302823516,221.4,0,0,1210,1024,1127,1024,221.4,0,96,4.145,4.14,4.137,4.134,0,0,6,GPS_Atti,
-34.2072397566024,18.8330205343355,374.37488730808,5.577428,1.4316416,6.4740159552,15800,2017-05-24 07:57:38,14,16.48,374.37488730808,5.577428,1.4316416,6.4740159552,221.3,0,0,1197,1024,1125,1024,221.4,0,96,4.145,4.14,4.137,4.134,0,0,6,GPS_Atti,
-34.2072402240617,18.8330200498725,374.37488730808,5.577428,1.4316416,6.6958007392,15900,2017-05-24 07:57:38,14,16.48,374.37488730808,5.577428,1.4316416,6.6958007392,221.1,0,0,1195,1024,1130,1024,0,0,96,4.145,4.14,4.137,4.134,0,0,6,GPS_Atti,
-34.20724082392,18.8330192292644,374.70297130808,5.905512,1.4316416,7.0126642664,16000,2017-05-24 07:57:38,14,16.48,374.70297130808,5.905512,1.4316416,7.0126642664,221,0,0,1198,1024,1129,1024,221.4,0,96,4.145,4.14,4.137,4.134,0,0,6,GPS_Atti,
-34.2072413367017,18.8330186386148,374.70297130808,5.905512,1.7448132,7.2663388152,16100,2017-05-24 07:57:38,14,16.48,374.70297130808,5.905512,1.7448132,7.2663388152,220.9,0,0,1198,1024,1129,1024,221.4,0,96,4.145,4.14,4.137,4.134,0,0,6,GPS_Atti,
-34.2072418717257,18.8330179486184,374.70297130808,5.905512,1.7448132,7.5435369868,16200,2017-05-24 07:57:38,14,16.48,374.70297130808,5.905512,1.7448132,7.5435369868,220.8,0,0,1198,1024,1126,1024,221.3,0,96,4.145,4.14,4.137,4.134,0,0,6,GPS_Atti,
-34.2072424174885,18.8330173464713,374.70297130808,5.905512,1.7448132,7.8098427696,16300,2017-05-24 07:57:38,14,16.48,374.70297130808,5.905512,1.7448132,7.8098427696,220.8,0,0,1199,1024,1126,1024,0,0,96,4.145,4.14,4.137,4.134,0,0,6,GPS_Atti,
-34.20724298713,18.833016520935,374.70297130808,5.905512,1.7448132,8.1214241444,16400,2017-05-24 07:57:38,14,16.48,374.70297130808,5.905512,1.7448132,8.1214241444,220.9,0,0,1194,1024,1125,1024,221.3,0,96,4.145,4.14,4.137,4.134,0,0,6,GPS_Atti,
-34.2072435697655,18.8330158432077,374.70297130808,5.905512,1.901399,8.412401844,16500,2017-05-24 07:57:38,14,16.48,374.70297130808,5.905512,1.901399,8.412401844,221,0,0,1195,1024,1122,1024,221.3,0,96,4.145,4.14,4.137,4.134,0,0,6,GPS_Atti,
-34.207244180057,18.8330149838635,375.03105530808,6.233596,1.901399,8.7434386,16600,2017-05-24 07:57:39,14,16.48,375.03105530808,6.233596,1.901399,8.7434386,221.3,0,0,1196,1024,1122,1024,221.3,0,96,4.145,4.14,4.137,4.134,0,0,6,GPS_Atti,
-34.2072447789806,18.8330142484887,375.03105530808,6.233596,2.0579848,9.0500659064,16700,2017-05-24 07:57:39,14,16.48,375.03105530808,6.233596,2.0579848,9.0500659064,221.6,0,0,1196,1024,1122,1024,0,0,96,4.14,4.135,4.132,4.13,0,0,6,GPS_Atti,
-34.2072454438681,18.8330133172333,375.03105530808,6.233596,2.2145706,9.4112207736,16800,2017-05-24 07:57:39,14,16.48,375.03105530808,6.233596,2.2145706,9.4112207736,221.7,0,0,1195,1024,1122,1024,221.3,0,96,4.14,4.135,4.132,4.13,0,0,6,GPS_Atti,
-34.2072461192204,18.8330125442532,375.35913930808,6.56168,2.2145706,9.7478349576,16900,2017-05-24 07:57:39,14,16.48,375.35913930808,6.56168,2.2145706,9.7478349576,221.5,0,0,1195,1024,1122,1024,221.3,0,96,4.14,4.135,4.132,4.13,0,0,6,GPS_Atti,
-34.2072461192204,18.8330125442532,375.35913930808,6.56168,2.2145706,9.7478349576,16900,2017-05-24 07:57:39,14,16.48,375.35913930808,6.56168,2.2145706,9.7478349576,221.5,0,0,1185,1024,1110,1024,221.3,0,96,4.14,4.135,4.132,4.13,0,0,6,GPS_Atti,
-34.2072474920416,18.8330108472742,375.35913930808,6.56168,2.3711564,10.4553481036,17100,2017-05-24 07:57:39,14,16.48,375.35913930808,6.56168,2.3711564,10.4553481036,221.1,0,0,1182,1024,1103,991,221.1,0,96,4.14,4.135,4.132,4.13,0,0,6,GPS_Atti,
-34.2072489215133,18.8330089821393,375.68722330808,6.889764,2.5277422,11.2113520648,17300,2017-05-24 07:57:39,14,16.48,375.68722330808,6.889764,2.5277422,11.2113520648,220.6,0,0,1180,1018,1100,941,220.4,0,96,4.14,4.135,4.132,4.13,0,0,6,GPS_Atti,
-34.2072495283375,18.8330079258742,375.68722330808,6.889764,2.5277422,11.5819557512,17400,2017-05-24 07:57:39,14,16.48,375.68722330808,6.889764,2.5277422,11.5819557512,219.9,0,0,1178,1002,1099,878,219.6,0,96,4.14,4.135,4.132,4.13,0,0,6,GPS_Atti,
-34.2072502687491,18.833006980264,375.68722330808,6.889764,2.5277422,11.9708993332,17500,2017-05-24 07:57:39,14,16.48,375.68722330808,6.889764,2.5277422,11.9708993332,218.5,0,0,1152,945,1098,868,218.6,0,96,4.14,4.135,4.132,4.13,0,0,6,GPS_Atti,
-34.2072511149777,18.8330058667743,375.68722330808,6.889764,2.5277422,12.4218835996,17600,2017-05-24 07:57:40,14,16.48,375.68722330808,6.889764,2.5277422,12.4218835996,216.9,0,0,1156,950,1099,876,217.7,0,96,4.14,4.135,4.132,4.13,0,0,6,GPS_Atti,
-34.2072511149777,18.8330058667743,375.68722330808,6.889764,2.5277422,12.4218835996,17600,2017-05-24 07:57:40,14,16.48,375.68722330808,6.889764,2.5277422,12.4218835996,216.9,0,0,1178,983,1101,899,216.8,0,96,4.14,4.135,4.132,4.13,0,0,6,GPS_Atti,
-34.2072527295066,18.833003837264,376.01530730808,7.217848,2.684328,13.2652235216,17800,2017-05-24 07:57:40,14,16.48,376.01530730808,7.217848,2.684328,13.2652235216,213.4,0,0,1187,998,1100,916,215.9,0,96,4.14,4.135,4.132,4.13,0,0,6,GPS_Atti,
-34.2072535862296,18.8330029190629,376.01530730808,7.217848,2.684328,13.682579178,17900,2017-05-24 07:57:40,14,16.48,376.01530730808,7.217848,2.684328,13.682579178,212,0,0,1192,1008,1098,919,215,0,96,4.14,4.135,4.132,4.13,0,0,6,GPS_Atti,
-34.2072544678749,18.8330021415542,376.01530730808,7.217848,2.8632832,14.0800857524,18000,2017-05-24 07:57:40,14,16.48,376.01530730808,7.217848,2.8632832,14.0800857524,210.8,0,0,1195,1017,1094,932,214.1,0,96,4.14,4.135,4.132,4.13,0,0,6,GPS_Atti,
-34.2072553649825,18.8330012794367,376.01530730808,7.217848,2.7290668,14.4981303852,18100,2017-05-24 07:57:40,14,16.48,376.01530730808,7.217848,2.8632832,14.4981303852,209.7,0,0,1213,1024,1089,939,213.3,0,96,4.14,4.135,4.132,4.13,0,0,6,GPS_Atti,
-34.2072562874665,18.8330003359579,376.01530730808,7.217848,2.7290668,14.9388784308,18200,2017-05-24 07:57:40,14,16.48,376.01530730808,7.217848,2.8632832,14.9388784308,208.7,0,0,1214,1024,1077,958,212.6,0,96,4.14,4.135,4.132,4.13,0,0,6,GPS_Atti,
-34.2072572451216,18.8329994890488,376.34339130808,7.545932,2.7290668,15.3711619092,18300,2017-05-24 07:57:40,14,16.48,376.34339130808,7.545932,2.8632832,15.3711619092,208.1,0,0,1227,1024,1076,965,212,0,96,4.14,4.135,4.132,4.13,0,0,6,GPS_Atti,
-34.2072582310422,18.8329985680078,376.34339130808,7.545932,2.7290668,15.8255582492,18400,2017-05-24 07:57:40,14,16.48,376.34339130808,7.545932,2.8632832,15.8255582492,207.5,0,0,1231,1024,1072,967,211.5,0,96,4.14,4.135,4.132,4.13,0,0,6,GPS_Atti,
-34.2072592239017,18.8329977725698,376.34339130808,7.545932,2.908022,16.258038578,18500,2017-05-24 07:57:40,14,16.48,376.34339130808,7.545932,2.908022,16.258038578,207,0,0,1235,1024,1074,975,211,0,96,4.14,4.135,4.132,4.13,0,0,6,GPS_Atti,
-34.2072603351842,18.8329968819473,376.34339130808,7.545932,2.908022,16.7423233704,18600,2017-05-24 07:57:41,14,16.48,376.34339130808,7.545932,2.908022,16.7423233704,206.2,0,0,1241,1024,1073,986,210.5,0,96,4.14,4.135,4.132,4.13,0,0,6,GPS_Atti,
-34.2072613793038,18.832996082396,376.34339130808,7.545932,2.908022,17.1903876892,18700,2017-05-24 07:57:41,14,16.48,376.34339130808,7.545932,2.908022,17.1903876892,205.4,0,0,1246,1024,1067,1001,210.1,0,96,4.14,4.135,4.132,4.13,0,0,6,GPS_Atti,
-34.207262528549,18.8329951042716,376.67147530808,7.874016,3.1093466,17.7021987292,18800,2017-05-24 07:57:41,14,16.399,376.67147530808,7.874016,3.1093466,17.7021987292,205,0,0,1256,1024,1068,1009,209.7,0,96,4.133,4.126,4.122,4.123,0,0,6,GPS_Atti,
-34.2072636527776,18.8329942227186,376.67147530808,7.874016,3.2211936,18.1887801096,18900,2017-05-24 07:57:41,14,16.399,376.67147530808,7.874016,3.2211936,18.1887801096,204.9,0,0,1266,1024,1060,1024,209.4,0,96,4.133,4.126,4.122,4.123,0,0,6,GPS_Atti,
-34.2072648193232,18.8329932469693,376.67147530808,7.874016,3.4225182,18.705217134,19000,2017-05-24 07:57:41,14,16.399,376.67147530808,7.874016,3.4225182,18.705217134,204.8,0,0,1269,1024,1055,1024,209,0,96,4.133,4.126,4.122,4.123,0,0,6,GPS_Atti,
-34.2072660077206,18.8329922972411,376.67147530808,7.874016,3.4225182,19.2231305364,19100,2017-05-24 07:57:41,14,16.399,376.67147530808,7.874016,3.4225182,19.2231305364,204.8,0,0,1269,1024,1045,1024,208.8,0,96,4.133,4.126,4.122,4.123,0,0,6,GPS_Atti,
-34.2072673764136,18.8329911790613,376.67147530808,7.874016,3.4225182,19.8242788496,19200,2017-05-24 07:57:41,14,16.399,376.67147530808,7.874016,3.4225182,19.8242788496,204.8,0,0,1269,1024,1037,1024,208.5,0,96,4.133,4.126,4.122,4.123,0,0,6,GPS_Atti,
-34.2072686106903,18.8329901777588,376.67147530808,7.874016,3.5343652,20.3651253236,19300,2017-05-24 07:57:41,14,16.399,376.67147530808,7.874016,3.5343652,20.3651253236,204.9,0,0,1269,1024,1036,1024,208.3,0,96,4.133,4.126,4.122,4.123,0,0,6,GPS_Atti,
-34.2072699997717,18.8329888364397,376.67147530808,7.874016,3.7133204,21.0136489664,19400,2017-05-24 07:57:41,14,16.399,376.67147530808,7.874016,3.7133204,21.0136489664,205.2,0,0,1269,1024,1039,1024,208.1,0,96,4.133,4.126,4.122,4.123,0,0,6,GPS_Atti,
-34.2072712662902,18.8329877552976,376.67147530808,7.874016,3.7133204,21.5786424228,19500,2017-05-24 07:57:42,14,16.399,376.67147530808,7.874016,3.7133204,21.5786424228,205.5,0,0,1269,1024,1039,1024,208,0,96,4.133,4.126,4.122,4.123,0,0,6,GPS_Atti,
-34.2072726538255,18.8329864925042,376.99955930808,8.2021,3.8475368,22.2121726268,19600,2017-05-24 07:57:42,14,16.399,376.99955930808,8.2021,3.8475368,22.2121726268,205.5,0,0,1269,1024,1036,1024,207.9,0,96,4.133,4.126,4.122,4.123,0,0,6,GPS_Atti,
-34.2072739468757,18.8329853826535,376.99955930808,8.2021,3.8475368,22.790191018,19700,2017-05-24 07:57:42,14,16.399,376.99955930808,8.2021,3.8475368,22.790191018,205.4,0,0,1267,1024,1035,1024,207.8,0,96,4.133,4.126,4.122,4.123,0,0,6,GPS_Atti,
-34.2072751166697,18.8329840356365,376.99955930808,8.2021,3.8475368,23.376641168,19800,2017-05-24 07:57:42,14,16.453,376.99955930808,8.2021,3.8475368,23.376641168,205.1,0,0,1261,1024,1039,1024,207.5,0,96,4.133,4.126,4.122,4.123,0,0,6,GPS_Atti,
-34.2072764365714,18.832982886512,376.99955930808,8.2021,3.8475368,23.9695873812,19900,2017-05-24 07:57:42,14,16.453,376.99955930808,8.2021,3.8475368,23.9695873812,204.7,0,0,1258,1024,1041,1024,0,0,96,4.133,4.126,4.122,4.123,0,0,6,GPS_Atti,
-34.2072777194332,18.8329816981211,376.99955930808,8.2021,3.8475368,24.5591871376,20000,2017-05-24 07:57:42,14,16.453,376.99955930808,8.2021,3.8475368,24.5591871376,204.4,0,0,1250,1024,1041,1024,207.4,0,96,4.133,4.126,4.122,4.123,0,0,6,GPS_Atti,
-34.2072790695253,18.8329805067999,376.99955930808,8.2021,4.1607084,25.1687015928,20100,2017-05-24 07:57:42,14,16.453,376.99955930808,8.2021,4.1607084,25.1687015928,204.4,0,0,1246,1024,1040,1024,207.2,0,96,4.133,4.126,4.122,4.123,0,0,6,GPS_Atti,
-34.2072803092219,18.8329793897899,376.99955930808,8.2021,4.1607084,25.7326779888,20200,2017-05-24 07:57:42,14,16.453,376.99955930808,8.2021,4.1607084,25.7326779888,204.6,0,0,1242,1024,1042,1024,207,0,96,4.133,4.126,4.122,4.123,0,0,6,GPS_Atti,
-34.2072817018299,18.8329781847989,376.99955930808,8.2021,4.1607084,26.3569890324,20300,2017-05-24 07:57:42,14,16.453,376.99955930808,8.2021,4.1607084,26.3569890324,204.9,0,0,1241,1024,1042,1024,0,0,96,4.133,4.126,4.122,4.123,0,0,6,GPS_Atti,
-34.2072832770094,18.832976810053,376.99955930808,8.2021,4.3396636,27.0653551968,20400,2017-05-24 07:57:42,14,16.453,376.99955930808,8.2021,4.3396636,27.0653551968,205.1,0,0,1239,1024,1040,1024,206.9,0,96,4.133,4.126,4.122,4.123,0,0,6,GPS_Atti,
-34.207284769638,18.8329755520189,376.99955930808,8.2021,4.3396636,27.7283801524,20500,2017-05-24 07:57:43,14,16.453,376.99955930808,8.2021,4.3396636,27.7283801524,205,0,0,1236,1024,1041,1024,206.9,0,96,4.133,4.126,4.122,4.123,0,0,6,GPS_Atti,
-34.2072862573898,18.832974191068,376.99955930808,8.2021,4.3396636,28.4089904104,20600,2017-05-24 07:57:43,14,16.453,376.99955930808,8.2021,4.3396636,28.4089904104,205,0,0,1235,1024,1041,1024,206.8,0,96,4.133,4.126,4.122,4.123,0,0,6,GPS_Atti,
-34.207289192696,18.8329717577633,376.99955930808,8.2021,4.2278166,29.7054799532,20800,2017-05-24 07:57:43,14,16.453,376.99955930808,8.2021,4.3396636,29.7054799532,204.8,0,0,1233,1024,1042,1024,206.7,0,96,4.133,4.126,4.122,4.123,0,0,6,GPS_Atti,
-34.2072906910192,18.832970566106,376.99955930808,8.2021,4.2278166,30.358104646,20900,2017-05-24 07:57:43,14,16.373,376.99955930808,8.2021,4.3396636,30.358104646,204.4,0,0,1232,1024,1041,1024,206.4,0,96,4.129,4.121,4.117,4.114,0,0,6,GPS_Atti,
-34.2072956914009,18.8329668963414,376.99955930808,8.2021,4.6080964,32.4807425092,21200,2017-05-24 07:57:43,14,16.373,376.99955930808,8.2021,4.6080964,32.4807425092,204.3,0,0,1239,1024,1042,1024,206.3,0,96,4.129,4.121,4.117,4.114,0,0,6,GPS_Atti,
-34.2072973760154,18.8329657424791,376.99955930808,8.2021,4.809421,33.181103424,21300,2017-05-24 07:57:43,14,16.373,376.99955930808,8.2021,4.809421,33.181103424,204.6,0,0,1240,1024,1041,1024,206.2,0,96,4.129,4.121,4.117,4.114,0,0,6,GPS_Atti,
-34.2072991926962,18.8329645930699,376.99955930808,8.2021,4.809421,33.919948592,21400,2017-05-24 07:57:43,14,16.373,376.99955930808,8.2021,4.809421,33.919948592,204.9,0,0,1244,1024,1037,1024,206.2,0,96,4.129,4.121,4.117,4.114,0,0,6,GPS_Atti,
-34.2073009882728,18.8329634367923,376.99955930808,8.2021,5.0107456,34.6538725,21500,2017-05-24 07:57:44,14,16.373,376.99955930808,8.2021,5.0107456,34.6538725,205.3,0,0,1239,1024,1041,1024,206.2,0,96,4.129,4.121,4.117,4.114,0,0,6,GPS_Atti,
-34.2073029942469,18.8329621741838,376.99955930808,8.2021,5.2120702,35.46916124,21600,2017-05-24 07:57:44,14,16.373,376.99955930808,8.2021,5.2120702,35.46916124,205.6,0,0,1239,1024,1037,1024,206.2,0,96,4.129,4.121,4.117,4.114,0,0,6,GPS_Atti,
-34.2073049177401,18.8329609789815,376.99955930808,8.2021,5.3015478,36.248688824,21700,2017-05-24 07:57:44,14,16.373,376.99955930808,8.2021,5.3015478,36.248688824,205.7,0,0,1236,1024,1031,1024,206.2,0,96,4.129,4.121,4.117,4.114,0,0,6,GPS_Atti,
-34.2073069973803,18.832959776908,376.99955930808,8.2021,5.5028724,37.075788588,21800,2017-05-24 07:57:44,14,16.373,376.99955930808,8.2021,5.5028724,37.075788588,205.7,0,0,1235,1024,1026,1024,206.2,0,96,4.129,4.121,4.117,4.114,0,0,6,GPS_Atti,
-34.2073090201562,18.8329585112388,376.99955930808,8.2021,5.5028724,37.897967092,21900,2017-05-24 07:57:44,14,16.373,376.99955930808,8.2021,5.5028724,37.897967092,205.8,0,0,1238,1024,1026,1024,206.2,0,96,4.129,4.121,4.117,4.114,0,0,6,GPS_Atti,
-34.2073111498915,18.832957020273,376.99955930808,8.2021,5.704197,38.791667908,22000,2017-05-24 07:57:44,14,16.373,376.99955930808,8.2021,5.704197,38.791667908,205.9,0,0,1231,1024,1025,1024,206.2,0,96,4.129,4.121,4.117,4.114,0,0,6,GPS_Atti,
-34.2073132494323,18.8329556894845,376.99955930808,8.2021,5.7936746,39.648623316,22100,2017-05-24 07:57:44,14,16.399,376.99955930808,8.2021,5.7936746,39.648623316,205.6,0,0,1238,1024,1024,1024,206.2,0,95,4.127,4.121,4.116,4.112,0,0,6,GPS_Atti,
-34.207315551326,18.8329541800852,376.99955930808,8.2021,5.7936746,40.59711416,22200,2017-05-24 07:57:44,14,16.399,376.99955930808,8.2021,5.7936746,40.59711416,205.3,0,0,1239,1024,1024,1024,206.2,0,95,4.127,4.121,4.116,4.112,0,0,6,GPS_Atti,
-34.2073177277961,18.8329527981519,376.99955930808,8.2021,5.9949992,41.486549884,22300,2017-05-24 07:57:44,14,16.399,376.99955930808,8.2021,5.9949992,41.486549884,205,0,0,1233,1024,1024,1024,206.1,0,95,4.127,4.121,4.116,4.112,0,0,6,GPS_Atti,
-34.2073199557713,18.8329513013103,376.99955930808,8.2021,5.9949992,42.411746764,22400,2017-05-24 07:57:44,14,16.399,376.99955930808,8.2021,5.9949992,42.411746764,205.3,0,0,1225,1024,1024,1024,206.1,0,95,4.127,4.121,4.116,4.112,0,0,6,GPS_Atti,
-34.2073221815727,18.8329499493155,376.99955930808,8.2021,5.9949992,43.311353092,22500,2017-05-24 07:57:45,14,16.399,376.99955930808,8.2021,5.9949992,43.311353092,205.6,0,0,1210,1024,1024,1024,206.1,0,95,4.127,4.121,4.116,4.112,0,0,6,GPS_Atti,
-34.2073245911945,18.8329484852638,376.99955930808,8.2021,5.9949992,44.285762572,22600,2017-05-24 07:57:45,14,16.399,376.99955930808,8.2021,5.9949992,44.285762572,205.6,0,0,1203,1024,1024,1024,206.1,0,95,4.127,4.121,4.116,4.112,0,0,6,GPS_Atti,
-34.2073268238053,18.8329471106733,376.99955930808,8.2021,5.9949992,45.192258664,22700,2017-05-24 07:57:45,14,16.399,376.99955930808,8.2021,5.9949992,45.192258664,205.5,0,0,1196,1024,1024,1024,206.1,0,95,4.127,4.121,4.116,4.112,0,0,6,GPS_Atti,
-34.2073288832326,18.8329457279752,376.99955930808,8.2021,5.9949992,46.047901736,22800,2017-05-24 07:57:45,14,16.399,376.99955930808,8.2021,5.9949992,46.047901736,205.2,0,0,1194,1024,1024,1024,206.1,0,95,4.127,4.121,4.116,4.112,0,0,6,GPS_Atti,
-34.2073310854796,18.8329443899373,376.99955930808,8.2021,5.9949992,46.939305964,22900,2017-05-24 07:57:45,14,16.399,376.99955930808,8.2021,5.9949992,46.939305964,204.8,0,0,1193,1024,1024,1024,206.1,0,95,4.127,4.121,4.116,4.112,0,0,6,GPS_Atti,
-34.207333227014,18.8329431196585,376.99955930808,8.2021,5.9055216,47.801182632,23000,2017-05-24 07:57:45,14,16.399,376.99955930808,8.2021,5.9949992,47.801182632,204.8,0,0,1190,1024,1024,1024,206.1,0,95,4.127,4.121,4.116,4.112,0,0,6,GPS_Atti,
-34.2073354009252,18.8329418382138,376.99955930808,8.2021,5.9055216,48.675198408,23100,2017-05-24 07:57:45,14,16.373,376.99955930808,8.2021,5.9949992,48.675198408,204.9,0,0,1189,1024,1024,1024,206,0,95,4.127,4.121,4.116,4.112,0,0,6,GPS_Atti,
-34.2073377001965,18.8329405086813,376.99955930808,8.2021,5.9055216,49.595474028,23200,2017-05-24 07:57:45,14,16.373,376.99955930808,8.2021,5.9949992,49.595474028,204.9,0,0,1190,1024,1024,1024,206,0,95,4.127,4.121,4.116,4.112,0,0,6,GPS_Atti,
-34.2073398747171,18.8329393092702,376.99955930808,8.2021,5.816044,50.456694528,23300,2017-05-24 07:57:45,14,16.373,376.99955930808,8.2021,5.9949992,50.456694528,204.8,0,0,1191,1024,1024,1024,206,0,95,4.127,4.121,4.116,4.112,0,0,6,GPS_Atti,
-34.2073419785421,18.8329382725832,376.99955930808,8.2021,5.816044,51.26968668,23400,2017-05-24 07:57:45,14,16.373,376.99955930808,8.2021,5.9949992,51.26968668,204.7,0,0,1191,1024,1024,1024,206,0,95,4.127,4.121,4.116,4.112,0,0,6,GPS_Atti,
-34.2073441687385,18.8329371310779,376.99955930808,8.2021,5.816044,52.126642088,23500,2017-05-24 07:57:46,14,16.373,376.99955930808,8.2021,5.9949992,52.126642088,204.6,0,0,1190,1024,1024,1024,205.9,0,95,4.127,4.121,4.116,4.112,0,0,6,GPS_Atti,
-34.2073463952426,18.8329362091082,376.99955930808,8.2021,5.816044,52.958991196,23600,2017-05-24 07:57:46,14,16.373,376.99955930808,8.2021,5.9949992,52.958991196,204.7,0,0,1189,1024,1024,1024,205.9,0,95,4.127,4.121,4.116,4.112,0,0,6,GPS_Atti,
-34.2073485965541,18.8329351078101,376.99955930808,8.2021,5.816044,53.8139781,23700,2017-05-24 07:57:46,14,16.373,376.99955930808,8.2021,5.9949992,53.8139781,204.8,0,0,1187,1024,1024,1024,205.9,0,95,4.127,4.121,4.116,4.112,0,0,6,GPS_Atti,
-34.2073531342029,18.8329329118258,377.32764330808,8.530184,5.816044,55.565618576,23900,2017-05-24 07:57:46,14,16.373,377.32764330808,8.530184,5.9949992,55.565618576,204.5,0,0,1189,1024,1024,1024,205.8,0,95,4.127,4.121,4.116,4.112,0,0,6,GPS_Atti,
-34.2073554550536,18.832931799317,377.32764330808,8.530184,5.816044,56.460631728,24000,2017-05-24 07:57:46,14,16.373,377.32764330808,8.530184,5.9949992,56.460631728,204.8,0,0,1185,1024,1024,1024,205.8,0,95,4.127,4.121,4.116,4.112,0,0,6,GPS_Atti,
-34.2073576458722,18.8329306829875,377.32764330808,8.530184,5.816044,57.316602884,24100,2017-05-24 07:57:46,14,16.373,377.32764330808,8.530184,5.9949992,57.316602884,205.3,0,0,1184,1024,1024,1024,205.8,0,95,4.127,4.121,4.116,4.112,0,0,6,GPS_Atti,
-34.2073598928917,18.8329294881855,377.32764330808,8.530184,5.816044,58.202757768,24200,2017-05-24 07:57:46,14,16.292,377.32764330808,8.530184,5.9949992,58.202757768,205.4,0,0,1188,1024,1024,1024,205.8,0,95,4.114,4.106,4.102,4.098,0,0,6,GPS_Atti,
-34.2073620568794,18.8329283358147,377.32764330808,8.530184,5.816044,59.05676042,24300,2017-05-24 07:57:46,14,16.292,377.32764330808,8.530184,5.9949992,59.05676042,205.2,0,0,1188,1024,1024,1024,205.8,0,95,4.114,4.106,4.102,4.098,0,0,6,GPS_Atti,
-34.2073641163629,18.8329271606817,377.32764330808,8.530184,5.816044,59.882219764,24400,2017-05-24 07:57:46,14,16.292,377.32764330808,8.530184,5.9949992,59.882219764,204.9,0,0,1186,1024,1024,1024,205.8,0,95,4.114,4.106,4.102,4.098,0,0,6,GPS_Atti,
-34.2073662544531,18.8329259931165,377.32764330808,8.530184,5.6147194,60.730973072,24500,2017-05-24 07:57:47,14,16.292,377.32764330808,8.530184,5.9949992,60.730973072,205,0,0,1187,1024,1024,1024,205.8,0,95,4.114,4.106,4.102,4.098,0,0,6,GPS_Atti,
-34.2073684838016,18.8329248280641,377.32764330808,8.530184,5.6147194,61.60761352,24600,2017-05-24 07:57:47,14,16.292,377.32764330808,8.530184,5.9949992,61.60761352,205.1,0,0,1183,1024,1024,1024,205.8,0,95,4.114,4.106,4.102,4.098,0,0,6,GPS_Atti,
-34.207370641702,18.8329236493791,377.32764330808,8.530184,5.816044,62.464897012,24700,2017-05-24 07:57:47,14,16.292,377.32764330808,8.530184,5.9949992,62.464897012,205,0,0,1184,1024,1024,1024,205.8,0,95,4.114,4.106,4.102,4.098,0,0,6,GPS_Atti,
-34.2073730055935,18.8329223469816,377.32764330808,8.530184,5.816044,63.405841924,24800,2017-05-24 07:57:47,14,16.292,377.32764330808,8.530184,5.9949992,63.405841924,205,0,0,1184,1024,1024,1024,205.8,0,95,4.114,4.106,4.102,4.098,0,0,6,GPS_Atti,
-34.2073751855188,18.8329212115963,377.32764330808,8.530184,5.816044,64.2634535,24900,2017-05-24 07:57:47,14,16.292,377.32764330808,8.530184,5.9949992,64.2634535,205,0,0,1185,1024,1024,1024,205.8,0,95,4.114,4.106,4.102,4.098,0,0,6,GPS_Atti,
-34.2073774338526,18.8329201540794,377.32764330808,8.530184,5.816044,65.130251428,25000,2017-05-24 07:57:47,14,16.292,377.32764330808,8.530184,5.9949992,65.130251428,204.9,0,0,1185,1024,1024,1024,205.7,0,95,4.114,4.106,4.102,4.098,0,0,6,GPS_Atti,
-34.2073795896085,18.8329190752552,377.32764330808,8.530184,5.5252418,65.972114972,25100,2017-05-24 07:57:47,14,16.292,377.32764330808,8.530184,5.9949992,65.972114972,204.7,0,0,1182,1024,1024,1024,0,0,95,4.114,4.106,4.102,4.098,0,0,6,GPS_Atti,
-34.2073820109972,18.8329179807614,377.32764330808,8.530184,5.5252418,66.89960844,25200,2017-05-24 07:57:47,14,16.346,377.32764330808,8.530184,5.9949992,66.89960844,204.8,0,0,1194,1024,1024,1024,205.7,0,95,4.114,4.107,4.103,4.099,0,0,6,GPS_Atti,
-34.2073841519148,18.8329169277786,377.32764330808,8.530184,5.5252418,67.733269884,25300,2017-05-24 07:57:47,14,16.346,377.32764330808,8.530184,5.9949992,67.733269884,204.7,0,0,1193,1024,1024,1024,205.7,0,95,4.114,4.107,4.103,4.099,0,0,6,GPS_Atti,
-34.207386463679,18.8329158580669,377.32764330808,8.530184,5.5252418,68.623361776,25400,2017-05-24 07:57:47,14,16.346,377.32764330808,8.530184,5.9949992,68.623361776,204.6,0,0,1198,1024,1024,1024,0,0,95,4.114,4.107,4.103,4.099,0,0,6,GPS_Atti,
-34.2073885967487,18.8329148271384,377.32764330808,8.530184,5.5252418,69.451445792,25500,2017-05-24 07:57:48,14,16.346,377.32764330808,8.530184,5.9949992,69.451445792,204.7,0,0,1209,1024,1024,1024,205.7,0,95,4.114,4.107,4.103,4.099,0,0,6,GPS_Atti,
-34.2073907473926,18.8329138218252,377.32764330808,8.530184,5.5252418,70.281826396,25600,2017-05-24 07:57:48,14,16.346,377.32764330808,8.530184,5.9949992,70.281826396,204.8,0,0,1205,1024,1024,1024,205.6,0,95,4.114,4.107,4.103,4.099,0,0,6,GPS_Atti,
-34.2073928993713,18.8329128151918,377.32764330808,8.530184,5.7265664,71.112863168,25700,2017-05-24 07:57:48,14,16.346,377.32764330808,8.530184,5.9949992,71.112863168,204.9,0,0,1211,1024,1024,1024,205.6,0,95,4.114,4.107,4.103,4.099,0,0,6,GPS_Atti,
-34.2073952081411,18.832911891098,377.32764330808,8.530184,5.6594582,71.980973432,25800,2017-05-24 07:57:48,14,16.346,377.32764330808,8.530184,5.9949992,71.980973432,204.9,0,0,1199,1024,1024,1024,205.6,0,95,4.114,4.107,4.103,4.099,0,0,6,GPS_Atti,
-34.2073996903508,18.8329101214413,377.32764330808,8.530184,5.6594582,73.664044352,26000,2017-05-24 07:57:48,14,16.346,377.32764330808,8.530184,5.9949992,73.664044352,205.1,0,0,1198,1024,1024,1024,205.6,0,95,4.114,4.107,4.103,4.099,0,0,6,GPS_Atti,
-34.2074019110002,18.8329091742729,377.32764330808,8.530184,5.6594582,74.509188736,26100,2017-05-24 07:57:48,14,16.346,377.32764330808,8.530184,5.9949992,74.509188736,205,0,0,1196,1024,1024,1024,205.6,0,95,4.114,4.107,4.103,4.099,0,0,6,GPS_Atti,
-34.2074042531401,18.8329081324987,377.32764330808,8.530184,5.7265664,75.407482728,26200,2017-05-24 07:57:48,14,16.346,377.32764330808,8.530184,5.9949992,75.407482728,205,0,0,1196,1024,1024,1024,205.6,0,95,4.114,4.107,4.103,4.099,0,0,6,GPS_Atti,
-34.207408933163,18.8329060473469,377.32764330808,8.530184,5.9502604,77.20308646,26400,2017-05-24 07:57:48,14,16.346,377.32764330808,8.530184,5.9949992,77.20308646,204.8,0,0,1194,1024,1024,1024,205.6,0,95,4.12,4.112,4.106,4.102,0,0,6,GPS_Atti,
-34.20741121446,18.8329050020992,377.32764330808,8.530184,5.9502604,78.083335832,26500,2017-05-24 07:57:49,14,16.346,377.32764330808,8.530184,5.9949992,78.083335832,204.7,0,0,1194,1024,1024,1024,0,0,95,4.12,4.112,4.106,4.102,0,0,6,GPS_Atti,
-34.2074138032206,18.8329038058755,377.32764330808,8.530184,5.9502604,79.083663948,26600,2017-05-24 07:57:49,14,16.346,377.32764330808,8.530184,5.9949992,79.083663948,204.7,0,0,1194,1024,1024,1024,205.6,0,95,4.12,4.112,4.106,4.102,0,0,6,GPS_Atti,
-34.2074160742908,18.8329027695746,377.32764330808,8.530184,5.9502604,79.959648228,26700,2017-05-24 07:57:49,14,16.346,377.32764330808,8.530184,5.9949992,79.959648228,204.8,0,0,1195,1024,1024,1024,205.5,0,95,4.12,4.112,4.106,4.102,0,0,6,GPS_Atti,
-34.2074183980545,18.8329017006747,377.32764330808,8.530184,5.9502604,80.857286052,26800,2017-05-24 07:57:49,14,16.346,377.32764330808,8.530184,5.9949992,80.857286052,205.2,0,0,1195,1024,1024,1024,205.5,0,95,4.12,4.112,4.106,4.102,0,0,6,GPS_Atti,
-34.2074206595192,18.8329006562097,377.32764330808,8.530184,5.9502604,81.731957996,26900,2017-05-24 07:57:49,14,16.346,377.32764330808,8.530184,5.9949992,81.731957996,205.4,0,0,1198,1024,1024,1024,205.6,0,95,4.12,4.112,4.106,4.102,0,0,6,GPS_Atti,
-34.2074229814536,18.8328995808614,377.32764330808,8.530184,5.9502604,82.630251988,27000,2017-05-24 07:57:49,14,16.346,377.32764330808,8.530184,5.9949992,82.630251988,205.3,0,0,1200,1024,1024,1024,205.5,0,95,4.12,4.112,4.106,4.102,0,0,6,GPS_Atti,
-34.2074252366202,18.8328985325442,377.32764330808,8.530184,5.9502604,83.503611596,27100,2017-05-24 07:57:49,14,16.346,377.32764330808,8.530184,5.9949992,83.503611596,205.1,0,0,1203,1024,1024,1024,205.5,0,95,4.12,4.112,4.106,4.102,0,0,6,GPS_Atti,
